id,name,address_street_address,address_locality,address_region,address_postcode,lat,lng,email_address,website_address,minicom,notes,provides_face_to_face,provides_telephone,provides_web,created_at,updated_at,telephone_en,telephone_cy,region_england,region_northern_ireland,region_scotland,region_wales,website_address_text,notes_cy,debt_advice_locator_organisation_standard_id,display_in_accredited_list,standard_ids
1,Advice NI,"Forestview, Purdy's Lane, Newtownbreda",Belfast,,BT8 7AR,55.3781,-3.43597,advice@adviceni.net,http://www.adviceni.net/advice/debt,,"Advice NI also delivers a range of advice services to the public including Debt and Money, Tax and Benefits, EU Settlement Scheme and Business Debt.",FALSE,TRUE,TRUE,2025-01-16 12:51:46 +0000,2025-01-16 12:51:46 +0000,0800 915 4604,,FALSE,TRUE,FALSE,FALSE,www.adviceni.net/advice/debt,,,FALSE,2
2,Advice North West - Embassy Building Office,"Embassy Building, 3 Strand Road",Derry,Derry,BT48 7BH,54.9985,-7.32185,advice@advicenorthwest.com,https://advicenorthwest.com/,,,TRUE,FALSE,FALSE,2025-01-16 12:51:47 +0000,2025-01-16 12:51:47 +0000,0300 303 3650,,FALSE,TRUE,FALSE,FALSE,www.advicenorthwest.com,,,FALSE,2
3,Advice North West - Strabane Office,17 Dock Street,Strabane,Tyrone,BT82 8EE,54.8288,-7.46524,advice@advicenorthwest.com,https://advicenorthwest.com/,,,TRUE,FALSE,FALSE,2025-01-16 12:51:47 +0000,2025-01-16 12:51:47 +0000,0300 303 3650,,FALSE,TRUE,FALSE,FALSE,www.advicenorthwest.com,,,FALSE,2
4,Community Advice Antrim & Newtownabbey (CAAN) - Antrim Office,"Farranshane House, 1 Ballygore Road",Antrim,Antrim,BT41 2RN,54.7189,-6.18857,advice@advicean.com,https://communityadvicean.co.uk/,,,TRUE,FALSE,FALSE,2025-01-16 12:51:48 +0000,2025-01-16 12:51:48 +0000,028 3836 1181,,FALSE,TRUE,FALSE,FALSE,www.communityadvicean.co.uk,,,FALSE,2
5,Community Advice Antrim & Newtownabbey (CAAN) - Newtownabbey Office,Dunanney Centre,Rathmullan Drive,Newtownabbey,BT37 9DQ,54.6647,-5.9174,advice@advicean.com,https://communityadvicean.co.uk/,,,TRUE,FALSE,FALSE,2025-01-16 12:51:48 +0000,2025-01-16 12:51:49 +0000,028 9590 6505,,FALSE,TRUE,FALSE,FALSE,www.communityadvicean.co.uk,,,FALSE,2
6,Community Advice Ards and North Down - Ards Office,30 Frances Street,Newtownards,Down,BT23 7DN,54.594,-5.69371,advice@caand.co.uk,https://www.caand.co.uk/debt.html,,,TRUE,FALSE,FALSE,2025-01-16 12:51:49 +0000,2025-01-16 12:51:49 +0000,0300 123 9287,,FALSE,TRUE,FALSE,FALSE,www.caand.co.uk/debt,,,FALSE,2
7,Community Advice Ards and North Down - Holywood Office,"Queen's Leisure Complex, Sullivan Close",Holywood,Down,BT18 9JF,54.6412,-5.83649,advice@caand.co.uk,https://www.caand.co.uk/debt.html,,,TRUE,FALSE,FALSE,2025-01-16 12:51:50 +0000,2025-01-16 12:51:50 +0000,0300 123 9287,,FALSE,TRUE,FALSE,FALSE,www.caand.co.uk/debt,,,FALSE,2
8,Community Advice Armagh,9 McCrums Court,Armagh,Armagh,BT61 7RS,54.3481,-6.65378,contact@adviceabc.co.uk,https://www.adviceni.net/local-advice/community-advice-craigavon,,,TRUE,FALSE,FALSE,2025-01-16 12:51:50 +0000,2025-01-16 12:51:50 +0000,0330 1359733,,FALSE,TRUE,FALSE,FALSE,www.communityadvicean.co.uk,,,FALSE,2
9,Community Advice Banbridge,"Banbridge Town Hall, 1 Scarva Street",Banbridge,Down,BT32 3DA,54.3486,-6.27258,contact@adviceabc.co.uk,https://www.adviceni.net/local-advice/community-advice-craigavon,,,TRUE,FALSE,FALSE,2025-01-16 12:51:51 +0000,2025-01-16 12:51:51 +0000,0330 1359733,,FALSE,TRUE,FALSE,FALSE,www.communityadvicean.co.uk,,,FALSE,2
10,Community Advice Causeway,"2nd Floor CRUN Building, 1-5 Brook Street",Coleraine,Derry,BT52 1PW,55.1321,-6.66711,advice@advicecauseway.com,https://www.communityni.org/organisation/community-advice-causeway-previously-citizens-advice,,,TRUE,FALSE,FALSE,2025-01-16 12:51:51 +0000,2025-01-16 12:51:52 +0000,028 703 44817,,FALSE,TRUE,FALSE,FALSE,www.communityni.org/organisation/community-advice-causeway-previously-citizens-advice,,,FALSE,2
11,Community Advice Craigavon,Portadown Health Centre,Tavanagh Ave,Portadown,BT62 3BU,54.4183,-6.43767,contact@adviceabc.co.uk,https://www.adviceni.net/local-advice/community-advice-craigavon,,,TRUE,FALSE,FALSE,2025-01-16 12:51:52 +0000,2025-01-16 12:51:52 +0000,0330 1359733,,FALSE,TRUE,FALSE,FALSE,www.communityadvicean.co.uk,,,FALSE,2
12,Community Advice Craigavon,"The Annex, Lurgan Town Hall, 6 Union Street",Lurgan,Lurgan,BT66 8DY,54.4611,-6.33127,contact@adviceabc.co.uk,https://www.adviceni.net/local-advice/community-advice-craigavon,,,TRUE,FALSE,FALSE,2025-01-16 12:51:52 +0000,2025-01-16 12:51:53 +0000,0330 1359733,,FALSE,TRUE,FALSE,FALSE,www.adviceni.net/local-advice/community-advice-craigavon,,,FALSE,2
13,Community Advice Fermanagh,"Fermanagh House, Broadmeadow Place",Enniskillen,Fermanagh,BT74 7HR,54.3447,-7.64254,bmaguire@communityadvicefermanagh.com,http://www.communityadvicefermanagh.com,,,TRUE,FALSE,FALSE,2025-01-16 12:51:53 +0000,2025-01-16 12:51:53 +0000,028 66324334,,FALSE,TRUE,FALSE,FALSE,www.communityadvicefermanagh.com,,,FALSE,2
14,Community Advice Lisburn and Castlereagh,50 Railway Street,Lisburn,Antrim,BT28 1XP,54.5132,-6.04442,calc@calcni.com,https://www.fermanaghhouse.org/community-advice-fermanagh/,,,TRUE,FALSE,FALSE,2025-01-16 12:51:54 +0000,2025-01-16 12:51:54 +0000,028 66 320 210,,FALSE,TRUE,FALSE,FALSE,www.fermanaghhouse.org/community-advice-fermanagh,,,FALSE,2
15,Community Advice Newry Mourne & Down - Downpatrick Office,"Ballymote Centre, 40 Killough Road",Downpatrick,Down,BT30 6PY,54.3159,-5.7096,advice@advicenmd.com,https://calcni.com/,,,TRUE,FALSE,FALSE,2025-01-16 12:51:54 +0000,2025-01-16 12:51:54 +0000,028 9266 2251,,FALSE,TRUE,FALSE,FALSE,www.calcni.com,,,FALSE,2
16,Community Advice Newry Mourne & Down - Newry Office,"Ballybot House, 28 Cornmarket",Newry,Down,BT35 8BG,54.1732,-6.34363,advice@advicenmd.com,https://advicenmd.com/,,,TRUE,FALSE,FALSE,2025-01-16 12:51:55 +0000,2025-01-16 12:51:55 +0000,0300 3030 306,,FALSE,TRUE,FALSE,FALSE,www.advicenmd.com,,,FALSE,2
17,East Belfast Independent Advice Centre (EBIAC),55 Templemore Avenue,Belfast,Down,BT5 4EX,54.5984,-5.90859,advice@ebiac.org,advicenmd,,,TRUE,FALSE,FALSE,2025-01-16 12:51:55 +0000,2025-01-16 12:51:55 +0000,0300 3030 306,,FALSE,TRUE,FALSE,FALSE,www.advicenmd.com,,,FALSE,2
18,East Belfast Independent Advice Centre (EBIAC),55 Templemore Avenue,Belfast,Down,BT78 1DP,54.5988,-7.30494,info@oias.co.uk,https://www.ebiac.org,,,TRUE,FALSE,FALSE,2025-01-16 12:51:56 +0000,2025-01-16 12:51:56 +0000,028 9073 5690,,FALSE,TRUE,FALSE,FALSE,www.ebiac.org,,,FALSE,2
19,Omagh Independent Advice Centre,"The Community House, 2 Drumragh Avenue",Omagh,Tyrone,BT12 6HE,54.5889,-5.95392,bob.stoker@south-city.co.uk,https://www.oias.co.uk,,,TRUE,FALSE,FALSE,2025-01-16 12:51:56 +0000,2025-01-16 12:51:56 +0000,2890136393,,FALSE,TRUE,FALSE,FALSE,www.oias.co.uk,,,FALSE,2
20,Southcity Resource and Development Centre,2 Maldon Street,Belfast,Antrim,BT13 2QN,54.5991,-5.95343,info@scaltd.net,https://www.communityni.org/organisation/southcity-resource-and-development-centre,,,TRUE,FALSE,FALSE,2025-01-16 12:51:57 +0000,2025-01-16 12:51:57 +0000,2890235350,,FALSE,TRUE,FALSE,FALSE,www.communityni.org/organisation/southcity-resource-and-development-centre,,,FALSE,2
21,Springfield Charitable Association (SCA),27 Clonard Crescent,Belfast,Antrim,BT45 5AJ,54.7554,-6.61383,info@stepni.org,https://www.scaltd.net/,,,TRUE,FALSE,FALSE,2025-01-16 12:51:57 +0000,2025-01-16 12:51:58 +0000,028 7963 3079,,FALSE,TRUE,FALSE,FALSE,www.scaltd.net,,,FALSE,2
22,STEP (Magherafelt),13 Queen Street,Magherafelt,Derry,BT14 7AA,54.6095,-5.94857,info@thevinecentre.org,http://www.stepni.org,,,TRUE,FALSE,FALSE,2025-01-16 12:51:58 +0000,2025-01-16 12:51:58 +0000,028 9035 1020,,FALSE,TRUE,FALSE,FALSE,www.stepni.org,,,FALSE,2
23,The Vine Centre,193 Crumlin Road,Belfast,Antrim,BT40 3AA,54.8492,-5.82271,advice@meacas.com,https://vinecentre.org,,,TRUE,FALSE,FALSE,2025-01-16 12:51:58 +0000,2025-01-16 12:51:59 +0000,028 96001333,,FALSE,TRUE,FALSE,FALSE,www.vinecentre.org,,,FALSE,2
24,Mid East Antrim Community Advice Services,2 Station Road,Larne,Antrim,BT43 5AA,54.8651,-6.27613,advice@meacas.com,http://www.midandeastantrimcommunityadviceservices.com,,,TRUE,FALSE,FALSE,2025-01-16 12:51:59 +0000,2025-01-16 12:51:59 +0000,028 96001333,,FALSE,TRUE,FALSE,FALSE,www.midandeastandrimcommunityservices.com,,,FALSE,2
25,Mid East Antrim Community Advice Services (new premises in Ballymena),7 Mill Street,Ballymena,Antrim,BT80 8NN,54.6474,-6.74249,info@stepni.org,http://www.midandeastantrimcommunityadviceservices.com,,,TRUE,FALSE,FALSE,2025-01-16 12:52:00 +0000,2025-01-16 12:52:00 +0000,2886761875,,FALSE,TRUE,FALSE,FALSE,www.midandeastandrimcommunityservices.com,,,FALSE,2
26,STEP (Cookstown),14 Union Street,Cookstown,Tyrone,BT70 1BS,54.5022,-6.77954,info@stepni.org,http://www.stepni.org,,,TRUE,FALSE,FALSE,2025-01-16 12:52:00 +0000,2025-01-16 12:52:00 +0000,028 87312118,,FALSE,TRUE,FALSE,FALSE,www.stepni.org,,,FALSE,2
27,STEP (Dungannon),"The Junction, 12 Beechvally Way",Dungannon,Tyrone,BT70 1BS,54.5022,-6.77954,info@stepni.org,http://www.stepni.org,,,TRUE,FALSE,FALSE,2025-01-16 12:52:01 +0000,2025-01-16 12:52:01 +0000,028 87750211,,FALSE,TRUE,FALSE,FALSE,www.stepni.org,,,FALSE,2
28,Anglia Care Trust,"Unit 8, The Square",Suffolk,Suffolk,IP5 3SL,52.0613,1.2721,admin@angliacaretrust.org.uk,http://www.angliacaretrust.org.uk,,,TRUE,FALSE,FALSE,2025-01-16 12:52:01 +0000,2025-01-16 12:52:02 +0000,01473 622 888,,TRUE,FALSE,FALSE,FALSE,,,,FALSE,3
29,Auriga Services Limited,Emmanuel Court,Sutton Coldfield,Birmingham,B72 1TJ,52.5646,-1.82291,info@aurigaservices.co.uk,http://www.aurigaservices.co.uk,,,TRUE,FALSE,FALSE,2025-01-16 12:52:02 +0000,2025-01-16 12:52:02 +0000,01213 11324,,TRUE,FALSE,FALSE,FALSE,,,,FALSE,3
30,Bangladeshi Community Association,"Surma Building, Kensington Street",Keighley,West Yorkshire,BD21 1PW,53.8629,-1.91626,enquires@bca-kieghley.org,http://www.bca-keighley.org,,,TRUE,FALSE,FALSE,2025-01-16 12:52:02 +0000,2025-01-16 12:52:03 +0000,01535 604359,,TRUE,FALSE,FALSE,FALSE,,,,FALSE,3
31,Bestwood Advice Centre Ltd,21 Gainsford Crescent,Nottingham,Nottinghamshire,NG5 5FH,52.9929,-1.16981,advice@bestwoodadvice.org.uk,http://www.bestwoodadvice.org.uk,,,TRUE,FALSE,FALSE,2025-01-16 12:52:03 +0000,2025-01-16 12:52:03 +0000,0115 9626579,,TRUE,FALSE,FALSE,FALSE,,,,FALSE,3
32,Better Leeds Communities,"The Burley Lodge Centre, 42-46 Burley Lodge Road",Leeds,,LS6 1QF,53.8072,-1.5734,info@betterleeds.org.uk,http://www.betterleeds.org.uk,,,TRUE,FALSE,FALSE,2025-01-16 12:52:04 +0000,2025-01-16 12:52:04 +0000,0113 2753498,,TRUE,FALSE,FALSE,FALSE,,,,FALSE,3
33,Birmingham Settlement,Centre for the Aston Family,359 - 361 Witton Road,Birmingham,B6 6NS,52.511,-1.88734,info@bsettlement.org.uk,http://www.birminghamsettlement.org.uk,,,TRUE,FALSE,FALSE,2025-01-16 12:52:04 +0000,2025-01-16 12:52:04 +0000,0121 250 0777,,TRUE,FALSE,FALSE,TRUE,,,,FALSE,3
34,Blackbird Leys Neighbourhood Support Scheme Ltd (t/a Agnes Smith Advice Centre),96 Blackbird Leys Road,Blackbird Leys,Oxford,OX4 6HS,51.7204,-1.20183,asac.reception@agnessmith.co.uk,http://www.agnessmith.co.uk,,,TRUE,FALSE,FALSE,2025-01-16 12:52:05 +0000,2025-01-16 12:52:05 +0000,01865 770206,,TRUE,FALSE,FALSE,FALSE,,,,FALSE,3
35,Cheetham Hill Advice Centre (or CHAC),"1-3 Morrowfield  Avenue, Cheetham Hill",Manchester,,M8 9AR,53.5058,-2.24413,office@cheethamadvice.org.uk,http://www.cheethamadvice.org.uk,,,TRUE,FALSE,FALSE,2025-01-16 12:52:05 +0000,2025-01-16 12:52:05 +0000,,,TRUE,FALSE,FALSE,FALSE,www.cheethamadvice.org.uk,,,FALSE,3
36,Christians Against Poverty,"Jubilee Mill,North Street",Bradford,,BD1 4EW,53.797,-1.74656,info@capuk.org,http://www.capuk.org,,,TRUE,FALSE,FALSE,2025-01-16 12:52:06 +0000,2025-01-16 12:52:06 +0000,01274 760720,,TRUE,FALSE,FALSE,FALSE,,,,FALSE,3
37,Churches Housing Action Team (Mid Devon Ltd) CHAT - CMA Debt Advice Centre,Coggan's Well House,Phoenix Lane,"Tiverton, Devon",EX16 6LU,50.9023,-3.48732,theoffice@chatmid.co.uk,https://chatmid.org/debt-and-money-advice/,,,TRUE,FALSE,FALSE,2025-01-16 12:52:06 +0000,2025-01-16 12:52:06 +0000,01884 255606,,TRUE,FALSE,FALSE,FALSE,www.chatmid.org/debt-and-money-advice/,,,FALSE,3
38,Clifton Welfare Rights Advice Centre,Clifton Cornerstone,Nottingham,Nottinghamshire,NG11 8EW,52.9039,-1.17625,,http://advicenottingham.org.uk/gethelp/,,,TRUE,FALSE,FALSE,2025-01-16 12:52:07 +0000,2025-01-16 12:52:07 +0000,0115 8836165,,TRUE,FALSE,FALSE,FALSE,,,,FALSE,3
39,Coventry Independent Advice Service Limited,Oakwood House,Coventry,Warwickshire,CV1 2HL,52.4038,-1.5092,info@covadvice.org.uk,http://www.covadvice.org.uk,,,TRUE,FALSE,FALSE,2025-01-16 12:52:07 +0000,2025-01-16 12:52:08 +0000,024 76521100,,TRUE,FALSE,FALSE,FALSE,,,,FALSE,3
40,Crosslight Advice - Balham,Ascension Church Balham,Malwood Road,London,SW12 8EN,51.4511,-0.149258,info@crosslightadvice.org,https://www.crosslightadvice.org/balham,,,TRUE,FALSE,FALSE,2025-01-16 12:52:08 +0000,2025-01-16 12:52:08 +0000,020 7052 0318,,TRUE,FALSE,FALSE,FALSE,,,,FALSE,3
41,Crosslight Advice - Dalgarno Way Branch,St Francis Church,5 Dalgarno Way,London,W10 5EL,51.5243,-0.22323,info@crosslightadvice.org,https://www.crosslightadvice.org/kensington,,,TRUE,FALSE,FALSE,2025-01-16 12:52:09 +0000,2025-01-16 12:52:09 +0000,020 7052 0318,,TRUE,FALSE,FALSE,FALSE,,,,FALSE,3
42,Crosslight Advice - Hammersmith,St Paul's Church,Queen Caroline Street,London,W6 9PJ,51.4915,-0.225412,info@crosslightadvice.org,https://www.crosslightadvice.org/hammersmith,,,TRUE,FALSE,FALSE,2025-01-16 12:52:09 +0000,2025-01-16 12:52:09 +0000,020 7052 0318,,TRUE,FALSE,FALSE,FALSE,,,,FALSE,3
43,Crosslight Advice - Hounslow West,St Paul's Church,London,London,TW3 3DA,51.4711,-0.380085,info@crosslightadvice.org,https://www.crosslightadvice.org/twickenham,,,TRUE,FALSE,FALSE,2025-01-16 12:52:10 +0000,2025-01-16 12:52:10 +0000,020 7052 0318,,TRUE,FALSE,FALSE,FALSE,,,,FALSE,3
44,Crosslight Advice - Latimer Road Branch,Clement James Centre,95 Sirdar Road,London,W11 4EQ,51.5116,-0.215337,info@crosslightadvice.org,https://www.crosslightadvice.org/kensington,,,TRUE,FALSE,FALSE,2025-01-16 12:52:10 +0000,2025-01-16 12:52:10 +0000,020 7052 0318,,TRUE,FALSE,FALSE,FALSE,,,,FALSE,3
45,Crosslight Advice - Seven Oaks,Vine Evangelical Church,Hitchen Hatch Lane,Sevenoaks,TN13 3AT,51.2777,0.193105,info@crosslightadvice.org,https://www.crosslightadvice.org/westkent,,,TRUE,FALSE,FALSE,2025-01-16 12:52:11 +0000,2025-01-16 12:52:11 +0000,020 7052 0318,,TRUE,FALSE,FALSE,FALSE,,,,FALSE,3
46,Crosslight Advice - South Kensington Branch,HTB Queen's Gate church,Queen's Gate,London,SW7 5LP,51.493,-0.178017,info@crosslightadvice.org,https://www.crosslightadvice.org/kensington,,,TRUE,FALSE,FALSE,2025-01-16 12:52:11 +0000,2025-01-16 12:52:12 +0000,020 7052 0318,,TRUE,FALSE,FALSE,FALSE,,,,FALSE,3
47,Crosslight Advice - Swindon,Pattern Church,Penzance Drive,Swindon,SN5 7LJ,51.5946,-1.88261,info@crosslightadvice.org,https://www.crosslightadvice.org/swindon,,,TRUE,FALSE,FALSE,2025-01-16 12:52:12 +0000,2025-01-16 12:52:12 +0000,Call 020 7052 0318,,TRUE,FALSE,FALSE,FALSE,,,,FALSE,3
48,Crosslight Advice - Tonbridge,Tonbridge Baptist Church,Darenth Avenue,Tonbridge,TN10 3HZ,51.2113,0.275674,info@crosslightadvice.org,https://www.crosslightadvice.org/westkent,,,TRUE,FALSE,FALSE,2025-01-16 12:52:13 +0000,2025-01-16 12:52:13 +0000,020 7052 0318,,TRUE,FALSE,FALSE,FALSE,,,,FALSE,3
49,Crosslight Advice - Tunbridge Wells,URC Church,1 Mount Ephraim,Tunbridge Wells,TN4 8AE,51.136,0.261132,info@crosslightadvice.org,https://www.crosslightadvice.org/westkent,,,TRUE,FALSE,FALSE,2025-01-16 12:52:13 +0000,2025-01-16 12:52:13 +0000,020 7052 0318,,TRUE,FALSE,FALSE,FALSE,,,,FALSE,3
50,Debt Advice Foundation,"1 Anchor Court, Commercial Road",Darwen,Lancashire,BB3 0DB,53.7132,-2.47636,info@debtadvicefoundation.org,https://www.debtadvicefoundation.org/maps01,,"Debt Advice Foundation is a national debt advice and education charity offering free, confidential support and advice to anyone worried about debt.",FALSE,TRUE,FALSE,2025-01-16 12:52:14 +0000,2025-01-16 12:52:14 +0000,0800 622 61 51,,TRUE,FALSE,FALSE,TRUE,www.debtadvicefoundation.org,Mae'r Sefydliad Cyngor Ar Ddyled yn elusen cyngor ar ddyled ac addysg cenedlaethol sy'n cynnig cymorth a chyngor cyfrinachol am ddim i unrhyw un sy'n poeni am ddyled.,,FALSE,3
51,Debt Advice Foundation,"1 Anchor Court, Commercial Road",Darwen,Lancashire,BB3 0DB,53.7132,-2.47636,info@debtadvicefoundation.org,https://www.debtadvicefoundation.org/maps02,,"Debt Advice Foundation is a national debt advice and education charity offering free, confidential support and advice to anyone worried about debt.",FALSE,FALSE,TRUE,2025-01-16 12:52:14 +0000,2025-01-16 12:52:14 +0000,,,TRUE,FALSE,FALSE,TRUE,www.debtadvicefoundation.org,Mae'r Sefydliad Cyngor Ar Ddyled yn elusen cyngor ar ddyled ac addysg cenedlaethol sy'n cynnig cymorth a chyngor cyfrinachol am ddim i unrhyw un sy'n poeni am ddyled.,,FALSE,3
52,East Riding of Yorkshire Council Welfare Visiting Team,"County Hall, Cross Street",Beverley,,HU17 9BA,53.8411,-0.429066,,https://www.eastriding.gov.uk/housing/housing-benefit-and-council-tax-support/welfare-visiting-team/,,,TRUE,FALSE,FALSE,2025-01-16 12:52:15 +0000,2025-01-16 12:52:15 +0000,01482 393939,,TRUE,FALSE,FALSE,FALSE,,,,FALSE,3
53,Rooted Finance Ltd,Green House,244-254 Cambridge Heath Road,London,E2 9DA,51.5326,-0.0569951,enquiries@rootedfinance.org.uk,https://www.rootedfinance.org.uk/,,,TRUE,FALSE,FALSE,2025-01-16 12:52:15 +0000,2025-01-16 12:52:15 +0000,020 34758811,,TRUE,FALSE,FALSE,FALSE,,,,FALSE,3
55,GL Communities,Trinity Centre,Matson,Gloucester,GL4 6AG,51.8415,-2.21865,info@glcommunities.org.uk,https://www.glcommunities.org.uk/about/what-we-offer/advice,,We offer a face to face drop-in advice service at our office and various outreach locations across the county. Telephone advice also provided. Online advice is available to anyone in Gloucestershire.,TRUE,FALSE,FALSE,2025-01-16 12:52:16 +0000,2025-01-16 12:52:16 +0000,01452 306581,,TRUE,FALSE,FALSE,FALSE,,,,FALSE,3
56,Helping Hands Community Trust,66-68 Blaby Road,Leicester,Leicestershire,LE18 4SD,52.5801,-1.13162,office@helpinghandscentre.co.uk,https://www.helpinghandsadvice.co.uk/services/,,,TRUE,FALSE,FALSE,2025-01-16 12:52:17 +0000,2025-01-16 12:52:17 +0000,0116 278 2001,,TRUE,FALSE,FALSE,FALSE,,,,FALSE,3
57,Homemaker Southwest - Plymouth,Devonport Guildhall,Plymouth,Plymouth,PL1 4EL,50.369,-4.17631,enquiries@moneyadviceplymouth.org.uk,https://www.homemakersw.org.uk/free-debt-advice-service,,,TRUE,FALSE,FALSE,2025-01-16 12:52:17 +0000,2025-01-16 12:52:17 +0000,01752 208126,,TRUE,FALSE,FALSE,FALSE,,,,FALSE,3
58,Homemaker Southwest - Torbay,Devonport Guildhall,Plymouth,Plymouth,PL1 4EL,50.369,-4.17631,mail@homemakersw.org.uk,https://www.homemakersw.org.uk/new-torbay-money-advice-service,,,TRUE,FALSE,FALSE,2025-01-16 12:52:18 +0000,2025-01-16 12:52:18 +0000,01392 686752,,TRUE,FALSE,FALSE,FALSE,,,,FALSE,3
59,Inspired Neighbourhood Community Interest Company,Wright Watson Enterprise Centre,Bradford,Bradford,BD10 9LD,53.834,-1.72891,info@incic.co.uk,http://www.incic.co.uk/?page_id=177,,,TRUE,FALSE,FALSE,2025-01-16 12:52:18 +0000,2025-01-16 12:52:18 +0000,01274 952057,,TRUE,FALSE,FALSE,FALSE,,,,FALSE,3
60,Island Advice Centre,Roserton Street,London,,E14 3PG,51.4985,-0.0100223,admin@island-advice.org.uk,http://www.island-advice.org.uk/money-and-debt-advice/,,,TRUE,FALSE,FALSE,2025-01-16 12:52:19 +0000,2025-01-16 12:52:19 +0000,020 7987 9379,,TRUE,FALSE,FALSE,FALSE,,,,FALSE,3
62,Limehouse Project,St Anne St Unit,London,,E14 7HG,51.5123,-0.0289038,advice@limehouseproject.org.uk,http://www.limehouseproject.org.uk,,,TRUE,FALSE,FALSE,2025-01-16 12:52:20 +0000,2025-01-16 12:52:20 +0000,020 7538 0075,,TRUE,FALSE,FALSE,FALSE,,,,FALSE,3
63,Living Well Bromley,66 Lennard Road,London,London,SE20 7LX,51.4189,-0.0497547,advice@livingwell.life,http://www.livingwell.life,,,TRUE,FALSE,FALSE,2025-01-16 12:52:20 +0000,2025-01-16 12:52:21 +0000,,,TRUE,FALSE,FALSE,FALSE,www.livingwell.life,,,FALSE,3
64,Manningham Project Ltd,203 Lumb Lane,Bradford,,BD8 7SG,53.8051,-1.7676,admin@manproj.org.uk,,,,TRUE,FALSE,FALSE,2025-01-16 12:52:21 +0000,2025-01-16 12:52:21 +0000,,,TRUE,FALSE,FALSE,FALSE,,,,FALSE,3
65,MAP (Mancroft Advice Project) - Great Yarmouth,52a Deneside,Great Yarmouth,Norfolk,NR30 2HL,52.6063,1.72842,info@map.uk.net,https://www.map.uk.net/find-us/great-yarmouth/,,,TRUE,FALSE,FALSE,2025-01-16 12:52:22 +0000,2025-01-16 12:52:22 +0000,01493 854839,,TRUE,FALSE,FALSE,FALSE,,,,FALSE,3
66,MAP (Mancroft Advice Project) - Norwich,Risebrow Centre,Norwich,Norfolk,NR2 1RF,52.6266,1.28973,info@map.uk.net,https://www.map.uk.net/find-us/norwich/,,,TRUE,FALSE,FALSE,2025-01-16 12:52:22 +0000,2025-01-16 12:52:22 +0000,01603 766994,,TRUE,FALSE,FALSE,FALSE,,,,FALSE,3
67,Meadows Advice Group,Queens Walk Community Centre,Nottingham,Nottinghamshire,NG2 2DF,52.9428,-1.15001,meadows_advice@btconnect.com,http://advicenottingham.org.uk/meadows/,,,TRUE,FALSE,FALSE,2025-01-16 12:52:23 +0000,2025-01-16 12:52:23 +0000,0115 986 0197,,TRUE,FALSE,FALSE,FALSE,,,,FALSE,3
68,Mind in Salford,The Angel Healthy Living Centre,Manchester,Lancashire,M3 6FA,53.4835,-2.2633,,https://www.mindinsalford.org.uk/welfare-rights-and-debt-advice/,,,TRUE,FALSE,FALSE,2025-01-16 12:52:23 +0000,2025-01-16 12:52:23 +0000,0161 212 4880,,TRUE,FALSE,FALSE,FALSE,,,,FALSE,3
69,Money A+E UK (Community Interest Company),Mansfield House,London,London,E13 8HT,51.5205,0.0204457,info@moneyaande.co.uk,http://www.moneyaande.co.uk,,,TRUE,FALSE,FALSE,2025-01-16 12:52:24 +0000,2025-01-16 12:52:24 +0000,0208 6163750,,TRUE,FALSE,FALSE,FALSE,,,,FALSE,3
70,Money Advice Plus (is the trading name of Money Advice and Community Support Service),Tisbury Road Offices,Hove Town Hall,"Hove,Brighton",BN3 3BQ,50.8288,-0.17033,advice@moneyadviceplus.org.uk,http://www.macss.org.uk,,,TRUE,FALSE,FALSE,2025-01-16 12:52:24 +0000,2025-01-16 12:52:25 +0000,01273 664000,,TRUE,FALSE,FALSE,TRUE,,,,FALSE,3
71,Money Buddies - Ebor Gardens Advice Centre,93 Haslewood Drive,Leeds,West Yorkshire,LS9 7PS,53.7992,-1.5229,,https://moneybuddies.org.uk,,"We provide free: Debt Advice, Emergency Debt Advice,  Help with Budgets for creditors and personal use, letter writing to creditors, form filling and much more. We also provide free advice via telephone and online.",TRUE,FALSE,FALSE,2025-01-16 12:52:25 +0000,2025-01-16 12:52:25 +0000,0113 2350276,,TRUE,FALSE,FALSE,FALSE,www.moneybuddies.org.uk,,,FALSE,3
72,No Limits (South),"13 High Street, Southampton",Southampton,,SO14 2DF,50.9009,-1.40344,enquiries@nolimitshelp.org.uk,http://www.nolimitshelp.org.uk,,,TRUE,FALSE,FALSE,2025-01-16 12:52:25 +0000,2025-01-16 12:52:26 +0000,,,TRUE,FALSE,FALSE,FALSE,www.nolimitshelp.org.uk,,,FALSE,3
73,Norfolk Community Law Service Ltd.,St Clements House,Norwich,Norfolk,NR3 1BQ,52.6332,1.29573,info@ncls.co.uk,https://www.ncls.co.uk/debt-advice/,,,TRUE,FALSE,FALSE,2025-01-16 12:52:26 +0000,2025-01-16 12:52:26 +0000,01603 496623,,TRUE,FALSE,FALSE,FALSE,,,,FALSE,3
74,North Bristol Advice Centre,2 Gainsborough Square,Lockleaze,Bristol,BS7 9XA,51.4911,-2.56405,,http://www.northbristoladvice.org.uk/get-advice,,,TRUE,FALSE,FALSE,2025-01-16 12:52:27 +0000,2025-01-16 12:52:27 +0000,0117 9515751,,TRUE,FALSE,FALSE,FALSE,,,,FALSE,3
75,Nucleus Community Action Ltd (Nucleus Legal Advice Centre),298 Old Brompton Road,Kensington,London,SW5 9JF,51.4885,-0.193423,admin@nucleus.org.uk,https://www.nucleus.org.uk/,,Telephone advice also provided,TRUE,FALSE,FALSE,2025-01-16 12:52:27 +0000,2025-01-16 12:52:27 +0000,0207 3734005,,TRUE,FALSE,FALSE,FALSE,,,,FALSE,3
77,Paddock Wood Community Advice Centre,64 Commercial Road,Kent,Kent,TN12 6DP,51.1794,0.386542,info@pwadvice.org,http://www.pwadvice.org/debt/4585472117,,,TRUE,FALSE,FALSE,2025-01-16 12:52:28 +0000,2025-01-16 12:52:28 +0000,01892 838619,,TRUE,FALSE,FALSE,FALSE,,,,FALSE,3
78,PayPlan,,Grantham,,NG31 7LE,52.9098,-0.65287,help@payplan.com,https://www.payplan.com/mas/,,"PayPlan's supportive, non-judgemental team of advisers help thousands of people beat their debts every year, and treat all of their calls with the strictest confidence.",FALSE,TRUE,FALSE,2025-01-16 12:52:29 +0000,2025-01-16 12:52:29 +0000,0800 280 2816,,TRUE,FALSE,FALSE,FALSE,www.payplan.com,,,FALSE,3
79,PayPlan,,Grantham,,NG31 7LE,52.9098,-0.65287,help@payplan.com,https://www.payplan.com/mas/,,"PayPlan's supportive, non-judgemental team of advisers help thousands of people beat their debts every year, and treat all of their calls with the strictest confidence.",FALSE,TRUE,FALSE,2025-01-16 12:52:29 +0000,2025-01-16 12:52:29 +0000,0800 280 2816,,FALSE,TRUE,FALSE,FALSE,www.payplan.com,,,FALSE,3
80,PayPlan,,Grantham,,NG31 7LE,52.9098,-0.65287,help@payplan.com,https://www.payplan.com/mas/,,"PayPlan's supportive, non-judgemental team of advisers help thousands of people beat their debts every year, and treat all of their calls with the strictest confidence.",FALSE,TRUE,FALSE,2025-01-16 12:52:30 +0000,2025-01-16 12:52:30 +0000,0800 280 2816,,FALSE,FALSE,TRUE,FALSE,www.payplan.com,,,FALSE,3
81,PayPlan,,grantham,,NG31 7LE,52.9098,-0.65287,help@payplan.com,https://www.payplan.com/mas/,,"PayPlan's supportive, non-judgemental team of advisers help thousands of people beat their debts every year, and treat all of their calls with the strictest confidence.",FALSE,TRUE,FALSE,2025-01-16 12:52:30 +0000,2025-01-16 12:52:30 +0000,0800 280 2816,,FALSE,FALSE,FALSE,TRUE,www.payplan.com,"Mae tm o gynghorwyr cefnogol, anfeirniadol PayPlan yn helpu miloedd o bobl i drechu eu dyledion bob blwyddyn, a thrin eu holl alwadau yn gwbl gyfrinachol.",,FALSE,3
82,PayPlan,,Grantham,,NG31 7LE,52.9098,-0.65287,,https://www.payplan.com/free-online-debt-help,,"PayPlan's online debt solution tool, PlanFinder, can give you a personalised debt solution in as little as 15 minutes. They also offer free live chat and email support for immediate help.",FALSE,FALSE,TRUE,2025-01-16 12:52:31 +0000,2025-01-16 12:52:31 +0000,,,TRUE,FALSE,FALSE,FALSE,www.payplan.com,,,FALSE,3
83,PayPlan,,Grantham,,NG31 7LE,52.9098,-0.65287,,https://www.payplan.com/free-online-debt-help,,"PayPlan's online debt solution tool, PlanFinder, can give you a personalised debt solution in as little as 15 minutes. They also offer free live chat and email support for immediate help.",FALSE,FALSE,TRUE,2025-01-16 12:52:31 +0000,2025-01-16 12:52:31 +0000,,,FALSE,TRUE,FALSE,FALSE,www.payplan.com,,,FALSE,3
84,PayPlan,,Grantham,,NG31 7LE,52.9098,-0.65287,,https://www.payplan.com/free-online-debt-help,,"PayPlan's online debt solution tool, PlanFinder, can give you a personalised debt solution in as little as 15 minutes. They also offer free live chat and email support for immediate help.",FALSE,FALSE,TRUE,2025-01-16 12:52:31 +0000,2025-01-16 12:52:31 +0000,,,FALSE,FALSE,TRUE,FALSE,www.payplan.com,,,FALSE,3
85,PayPlan,,Grantham,,NG31 7LE,52.9098,-0.65287,,https://www.payplan.com/free-online-debt-help,,"PayPlan's online debt solution tool, PlanFinder, can give you a personalised debt solution in as little as 15 minutes. They also offer free live chat and email support for immediate help.",FALSE,FALSE,TRUE,2025-01-16 12:52:32 +0000,2025-01-16 12:52:32 +0000,,,FALSE,FALSE,FALSE,TRUE,www.payplan.com,"Gall teclyn datrys dyled PayPlan, PlanFinder, eich darparu gydag ateb personol i'ch sefyllfa ddyled mewn cyn lleied a 15 munud. Maent hefyd yn cynnir sgwrs byw a chymorth e-bost am help brys.",,FALSE,3
86,Pennysmart CIC,"Unit 60-61, The Business Centre","Minerva Avenue, Sovereign Way",Cheshire,CH1 4QL,53.1938,-2.92975,"advice@pennysmart.org.uk,",https://www.pennysmart.org.uk/,,,TRUE,FALSE,FALSE,2025-01-16 12:52:32 +0000,2025-01-16 12:52:32 +0000,01244 651210,,FALSE,FALSE,FALSE,TRUE,www.pennysmart.org.uk,,,FALSE,3
87,Raise,286 Scotland Road,Liverpool,Merseyside,L5 5AE,53.4206,-2.98148,admin@benefitsadviceteam.co.uk,http://www.benefitsadviceteam.co.uk,,"Raise focuses on providing advice to social housing tenants and Liverpool residents who are unable to get to their nearest advice centre. They provide telephone advice in emergencies but otherwise work exclusively by home visit. There is no drop in facility.

Visit Raise's website for information about their service and opening times.",TRUE,FALSE,FALSE,2025-01-16 12:52:33 +0000,2025-01-16 12:52:33 +0000,0151 482 2475,,TRUE,FALSE,FALSE,FALSE,,,,FALSE,3
88,Reading University Students Union Advice Service,PO Box 230,Reading,Berkshire,RG6 6AZ,51.4431,-0.92728,advice@rusu.co.uk,https://www.rusu.co.uk/advice/,,,TRUE,FALSE,FALSE,2025-01-16 12:52:33 +0000,2025-01-16 12:52:34 +0000,0118 3784100,,TRUE,FALSE,FALSE,FALSE,,,,FALSE,3
89,RELEASE (L.E.A.D.S.),Fergusson House,London,London,EC1V 2NJ,51.5266,-0.0884186,ask@release.org.uk,https://www.release.org.uk/legal-outreach,,,TRUE,FALSE,FALSE,2025-01-16 12:52:34 +0000,2025-01-16 12:52:34 +0000,020 7324 2989,,TRUE,FALSE,FALSE,FALSE,,,,FALSE,3
90,Rethink Mental Illness,64 Wordsworth Road,Small Heath,Birmingham,B10 0EE,52.467,-1.85624,,http://www.rethink.org,,,TRUE,FALSE,FALSE,2025-01-16 12:52:34 +0000,2025-01-16 12:52:35 +0000,0808 801 0373,,TRUE,FALSE,FALSE,TRUE,,,,FALSE,3
91,Richmond Advice and Information on Disability (RAID),"Disability Action and Advice Centre, 4 Waldergrave Road",Teddington,Richmond,TW11 8HT,51.4277,-0.334308,advice@richmondaid.org.uk,http://www.richmondaid.org.uk/money-advice/,,Telephone advice also provided,TRUE,FALSE,FALSE,2025-01-16 12:52:35 +0000,2025-01-16 12:52:35 +0000,020 8831 6070,,TRUE,FALSE,FALSE,FALSE,,,,FALSE,3
92,Roma Support Group,Alan Shelley House,318 Barking Road,London,E13 8HL,51.5211,0.020848,info@romasupportgroup.org.uk,http://rsg2016.weebly.com/advice--advocacy.html,,"Our Advice & Advocacy support reaches some of the most vulnerable and excluded members of the Roma community, including older people, single parents, people with mental health issues and physical disabilities.",TRUE,FALSE,FALSE,2025-01-16 12:52:36 +0000,2025-01-16 12:52:36 +0000,0790 388 3748,,TRUE,FALSE,FALSE,FALSE,,,,FALSE,3
93,Rose Hill & Donnington Advice Centre Ltd,Rose Hill Community Centre,Oxford,Oxfordshire,OX4 4HF,51.7261,-1.23079,admin@rhdadvice.org,http://rhdadvice.org/,,,TRUE,FALSE,FALSE,2025-01-16 12:52:36 +0000,2025-01-16 12:52:36 +0000,01865 438634,,TRUE,FALSE,FALSE,FALSE,,,,FALSE,3
94,Saffron Lane Neighbourhood Council,432 Saffron Lane,Leicester,,LE2 6SB,52.6056,-1.13764,barbara@srcentre.org.uk,http://srcentre.org.uk/talk-money/,,,TRUE,FALSE,FALSE,2025-01-16 12:52:37 +0000,2025-01-16 12:52:37 +0000,0116 2831765,,TRUE,FALSE,FALSE,FALSE,www.srcentre.org.uk/talk-money/,,,FALSE,3
95,Shelter - Specialist Debt Advice Service,88 Old Street,London,,EC1V 9HU,51.5244,-0.0943339,,,,,TRUE,FALSE,FALSE,2025-01-16 12:52:37 +0000,2025-01-16 12:52:37 +0000,0344 515 2000,,TRUE,FALSE,FALSE,FALSE,,,,FALSE,3
97,South Bristol Advice Service,The Withywood Centre,Bishopsworth,Bristol,BS13 8QA,51.4077,-2.62198,info@solihullcommunityhousing.org.uk,https://www.southbristoladvice.org.uk/debt-advice.php,,Telephone advice also provided,TRUE,FALSE,FALSE,2025-01-16 12:52:38 +0000,2025-01-16 12:52:38 +0000,0117 903 8358,,TRUE,FALSE,FALSE,FALSE,,,,FALSE,3
98,Spitfire Advice & Support Services Ltd,Spitfire House,"Castle Vale, Birmingham",West Midlands,B35 7PR,52.5212,-1.78404,,https://www.spitfireservices.org.uk/advice/,,"We provide free, confidential and impartial advice for people living in Birmingham on a wide range of money, benefit, housing or employment issues.",TRUE,FALSE,FALSE,2025-01-16 12:52:39 +0000,2025-01-16 12:52:39 +0000,0121 7475932,,TRUE,FALSE,FALSE,FALSE,,,,FALSE,3
99,St Andrews Community Network,"C/o Clubmoor Community Centre,16 Larkhill Lane, Clubmoor",Liverpool,Liverpool,L6 8NR,53.4159,-2.94022,info@standrewslive.org.uk,https://www.standrewslive.org.uk/,,,TRUE,FALSE,FALSE,2025-01-16 12:52:39 +0000,2025-01-16 12:52:40 +0000,0151 226 3406,,TRUE,FALSE,FALSE,FALSE,,,,FALSE,3
100,St Ann's Advice Centre,The Chase Neighbourhood Centre,Nottingham,Nottinghamshire,NG3 4EZ,52.9631,-1.13792,info@stannsadvice.org.uk,https://stannsadvice.org.uk/debt-advice-service/,,,TRUE,FALSE,FALSE,2025-01-16 12:52:40 +0000,2025-01-16 12:52:40 +0000,0115 908 1530,,TRUE,FALSE,FALSE,FALSE,,,,FALSE,3
101,St Hilda's East Community Centre,18 Club Row,London,London,E2 7EY,51.5251,-0.0742055,mail@sthildas.org.uk,http://sthildas.org.uk/advice/legal-advice-service/,,,TRUE,FALSE,FALSE,2025-01-16 12:52:41 +0000,2025-01-16 12:52:41 +0000,020 7739 8066,,TRUE,FALSE,FALSE,FALSE,,,,FALSE,3
102,St Luke's Advice Centre,18 Exeter Street,Brighton,East Sussex,BN1 5PG,50.8357,-0.14945,info@stlukesadviceservice.org.uk,https://www.stlukesadviceservice.org.uk/money-advice/,,,TRUE,FALSE,FALSE,2025-01-16 12:52:41 +0000,2025-01-16 12:52:41 +0000,01273 549203,,TRUE,FALSE,FALSE,FALSE,,,,FALSE,3
103,St Pauls Advice Centre,146 Grosvenor Road,St Pauls,Bristol,BS2 8YA,51.4652,-2.5813,moneyadvice@stpaulsadvice.org.uk,https://www.stpaulsadvice.org.uk/debt-and-money/,,Telephone advice also provided,TRUE,FALSE,FALSE,2025-01-16 12:52:42 +0000,2025-01-16 12:52:42 +0000,0117 9405406,,TRUE,FALSE,FALSE,FALSE,,,,FALSE,3
105,St Vincent's Support Centre,"Curtis House, 4 Berking Avenue",Leeds,West Yorkshire,LS9 9LF,53.7973,-1.51836,,http://www.stvincentsorg.co.uk/,,"We are a charity and we provide free independent, confidential and impartial face to face Debt Advice. Telephone advice also provided.",TRUE,FALSE,FALSE,2025-01-16 12:52:43 +0000,2025-01-16 12:52:43 +0000,0113 2484126,,TRUE,FALSE,FALSE,FALSE,www.stvincentsorg.co.uk,,,FALSE,3
106,The Project,The Depot,Longbridge,Birmingham,B45 9PD,52.3968,-1.99965,info@theprojectbirmingham.org,https://www.theprojectbirmingham.org/debt-advice-money-advice/,,,TRUE,FALSE,FALSE,2025-01-16 12:52:43 +0000,2025-01-16 12:52:43 +0000,0121 453 0606,,TRUE,FALSE,FALSE,FALSE,,,,FALSE,3
107,Toynbee Hall,28 Commercial Street,London,London,E1 6LS,51.5167,-0.0722303,advice@toynbeehall.org.uk,https://www.toynbeehall.org.uk/debt-advice/,,,TRUE,FALSE,FALSE,2025-01-16 12:52:44 +0000,2025-01-16 12:52:44 +0000,0808 164 2480,,TRUE,FALSE,FALSE,FALSE,,,,FALSE,3
108,Turkish Cypriot Women's Project,140A Falkland Road,London,London,N8 0NP,51.586,-0.102716,info@tcwp.org.uk,http://www.tcwp.org.uk/services.html,,Provides advice and support to Haringey Council residents under Homes for Haringey.,TRUE,FALSE,FALSE,2025-01-16 12:52:44 +0000,2025-01-16 12:52:45 +0000,020 8340 3300,,TRUE,FALSE,FALSE,FALSE,,,,FALSE,3
110,West View Advice & Resource Centre Ltd,WVARC,Hartlepool,County Durham,TS24 9JQ,54.7067,-1.22423,,http://www.wvarc30.org.uk/sub/specialist-debt-advice-3,,,TRUE,FALSE,FALSE,2025-01-16 12:52:45 +0000,2025-01-16 12:52:46 +0000,01429 271294,,TRUE,FALSE,FALSE,FALSE,,,,FALSE,3
111,Windhill Advice Centre,Church Street,Shipley,West Yorkshire,BD18 2NR,53.8338,-1.76424,contact@windhillcommunity.co.uk,http://windhillcommunity.co.uk/advice-service/?doing_wp_cron=1562241033.1679160594940185546875,,,TRUE,FALSE,FALSE,2025-01-16 12:52:46 +0000,2025-01-16 12:52:46 +0000,01274 588831,,TRUE,FALSE,FALSE,FALSE,,,,FALSE,3
112,Royal Association for Deaf People,"Parkside Office Village,Knowledge Gateway, Knowledge Gateway",Essex,,CO4 3ZL,51.8805,0.942159,Info@royaldeaf.org.uk,http://www.royaldeaf.org.uk,,,TRUE,FALSE,FALSE,2025-01-16 12:52:47 +0000,2025-01-16 12:52:47 +0000,0300 688 2525,,TRUE,FALSE,FALSE,FALSE,,,,FALSE,3
113,Welwitschia Welfare Centre,"Imperial House,64 Willoughby Lane",London,,N17 0SP,51.6049,-0.0541732,info@wwcuk.org,http://www.wwcuk.org.uk,,,TRUE,FALSE,FALSE,2025-01-16 12:52:47 +0000,2025-01-16 12:52:47 +0000,0208 808 1255,,TRUE,FALSE,FALSE,FALSE,,,,FALSE,3
114,Aberdeen Citizens Advice Bureau - Calsayseat Medical Practice Outreach,44 Powis Place,Aberdeen,,AB25 3TX,57.1574,-2.10794,,http://www.aberdeencab.org.uk,,"For patients of Calsayseat Medical Practice only
Tuesday  13.30 - 15.30 (By appointment only)",TRUE,FALSE,FALSE,2025-01-16 12:52:48 +0000,2025-01-16 12:52:48 +0000,0845 337 6370,,FALSE,FALSE,TRUE,FALSE,www.aberdeencab.org.uk,,,FALSE,6
115,Aberdeen Citizens Advice Bureau - Mastrick Outreach,"Mastrick Community Centre, Greenfern Road",Aberdeen,,AB16 6TR,57.1562,-2.16337,,http://www.aberdeencab.org.uk,,"This is a Money Debt or Benefit Advice Service for those resident in this regeneration area only

Tuesday 10.00 - 15.00 (Drop In)",TRUE,FALSE,FALSE,2025-01-16 12:52:48 +0000,2025-01-16 12:52:48 +0000,07795 622114 or 07944 803479,,FALSE,FALSE,TRUE,FALSE,www.aberdeencab.org.uk,,,FALSE,6
116,Aberdeen Citizens Advice Bureau - Northfield Community Centre Outreach,"Northfield Community Centre, Byron Square",Aberdeen,,AB16 7LL,57.1659,-2.16213,,http://www.aberdeencab.org.uk,,"This is a Money Debt or Benefit Advice Service for those resident in this regeneration area only

Thursday 10.00 - 15.00 (Drop In)",TRUE,FALSE,FALSE,2025-01-16 12:52:49 +0000,2025-01-16 12:52:49 +0000,07498 604702 or 07795 622114,,FALSE,FALSE,TRUE,FALSE,www.aberdeencab.org.uk,,,FALSE,6
117,Aberdeen Citizens Advice Bureau - Powis Outreach,Powis Community Centre,11 Powis Circle,Aberdeen,AB24 3YX,57.1646,-2.11026,,http://www.aberdeencab.org.uk,,"This is a Money Debt or Benefit Advice Service for those resident in this regeneration area only

Monday  10.00 - 14.00 (Drop In)",TRUE,FALSE,FALSE,2025-01-16 12:52:49 +0000,2025-01-16 12:52:50 +0000,07498 604702 or 07795 622114,,FALSE,FALSE,TRUE,FALSE,www.aberdeencab.org.uk,,,FALSE,6
118,Aberdeen Citizens Advice Bureau - Torry  Outreach,"Torry Community Centre, Oscar Road",Aberdeen,,AB11 8ER,57.1355,-2.08651,,http://www.aberdeencab.org.uk,,"This is a Money Advice Service only

Tuesday  10.00 - 15.00 (Drop In)",TRUE,FALSE,FALSE,2025-01-16 12:52:50 +0000,2025-01-16 12:52:50 +0000,07944 803513 or 07498 604702,,FALSE,FALSE,TRUE,FALSE,www.aberdeencab.org.uk,,,FALSE,6
119,Aberdeen Citizens Advice Bureau - Woodside Community Centre Outreach,"Woodside Community Centre, Marquis Road",Aberdeen,,AB24 2QY,57.1695,-2.12143,,http://www.aberdeencab.org.uk,,"This is a Money Debt or Benefit Advice Service for those residents in this regeneration area only

Wednesday  10.00 - 15.00 (Drop In)",TRUE,FALSE,FALSE,2025-01-16 12:52:50 +0000,2025-01-16 12:52:51 +0000,07944 803513 or 07944 803479,,FALSE,FALSE,TRUE,FALSE,www.aberdeencab.org.uk,,,FALSE,6
120,Aberdeen Citizens Advice Bureau (Macmillan Cancer Centre Project Outreach),Roxburgh House Ashgrove Road,Aberdeen,,AB25 3AE,57.1582,-2.11989,,http://www.aberdeencab.org.uk,,Macmillan Cancer Outreach. For patients attending Roxburgh House only.,TRUE,FALSE,FALSE,2025-01-16 12:52:51 +0000,2025-01-16 12:52:51 +0000,01224 557116,,FALSE,FALSE,TRUE,FALSE,www.aberdeencab.org.uk,,,FALSE,6
121,Aberdeen Citizens Advice Bureau (Main Advice Centre),41 Union Street,Aberdeen,,AB11 5BN,57.1471,-2.09583,,http://www.aberdeencab.org.uk,,"The main Advice Centre can be contacted by phone on 01224 569750 between 10am and 3pm, Monday to Friday, or by email on bureau@aberdeencab.casonline.org.uk at any time",TRUE,FALSE,FALSE,2025-01-16 12:52:52 +0000,2025-01-16 12:52:52 +0000,Call the bureau on 01224 569750 to make an appointment.,,FALSE,FALSE,TRUE,FALSE,www.aberdeencab.org.uk,,,FALSE,6
122,Airdrie Citizens Advice Bureau - Caldercruix Outreach,"Caldercruix Community Centre, Progress Drive",Caldercruix,,ML6 7PP,55.8916,-3.88308,advice@airdriecab.casonline.org.uk,http://www.airdriecab.co.uk/services/debt-and-money,,"Airdrie Citizens Advice Bureau hold an advice surgery in Caldercruix Community Centre every Tuesday from 1.00pm to 3.00pm (except the 4th Tuesday of the month)
Advice also provided via the telephone and webchat.",TRUE,FALSE,FALSE,2025-01-16 12:52:52 +0000,2025-01-16 12:52:52 +0000,0800 328 1131,,FALSE,FALSE,TRUE,FALSE,www.airdriecab.co.uk,,,FALSE,6
123,Airdrie Citizens Advice Bureau - Monklands Hospital,"Monklands Hospital Reception Area, Monkscourt Avenue",Airdrie,,ML6 0JS,55.8659,-3.99959,advice@airdriecab.casonline.org.uk,http://www.airdriecab.co.uk/services/debt-and-money,,"Airdrie Citizens Advice Bureau hold an advice surgery at the hospital, please contact Airdrie CAB for day(s) and opening times. Advice also provided via the telephone and webchat.",TRUE,FALSE,FALSE,2025-01-16 12:52:53 +0000,2025-01-16 12:52:53 +0000,0800 328 1131,,FALSE,FALSE,TRUE,FALSE,www.airdriecab.co.uk,,,FALSE,6
124,Airdrie Citizens Advice Bureau - Plains Outreach,"Plains Community Centre, Main Street, Plains",Airdrie,,ML6 7JG,55.8796,-3.9253,advice@airdriecab.casonline.org.uk,http://www.airdriecab.co.uk/services/debt-and-money,,Airdrie Citizens Advice Bureau hold an advice surgery in Plains community Centre every Tuesday from 10am to 12 noon.  Advice also provided via the telephone and webchat.,TRUE,FALSE,FALSE,2025-01-16 12:52:53 +0000,2025-01-16 12:52:53 +0000,0800 328 1131,,FALSE,FALSE,TRUE,FALSE,www.airdriecab.co.uk,,,FALSE,6
125,Airdrie Citizens Advice Bureau - Salsburgh,"Salsburgh Community Centre, 92 Main Street",Salsburgh,,ML7 4LH,55.8434,-3.87519,advice@airdriecab.casonline.org.uk,http://www.airdriecab.co.uk/services/debt-and-money,,Airdrie Citizens Advice Bureau hold an advice surgery in Salsburgh community Centre every Wednesday from 10am to 12 noon.  Advice also provided via the telephone and webchat.,TRUE,FALSE,FALSE,2025-01-16 12:52:54 +0000,2025-01-16 12:52:54 +0000,0800 328 1131,,FALSE,FALSE,TRUE,FALSE,www.airdriecab.co.uk,,,FALSE,6
126,Airdrie Citizens Advice Bureau - Trussell Trust Foodbank Outreach,Airdrie Baptist Church,97 Graham Street,Airdrie,ML6 6DE,55.8666,-3.97562,advice@airdriecab.casonline.org.uk,http://www.airdriecab.co.uk/services/debt-and-money,,Airdrie Citizens Advice Bureau hold an advice surgery at Trussell Trust Foodbank every Friday 11.30am-1.30pm.  Advice also provided via the telephone and webchat.,TRUE,FALSE,FALSE,2025-01-16 12:52:54 +0000,2025-01-16 12:52:54 +0000,0800 328 1131,,FALSE,FALSE,TRUE,FALSE,www.airdriecab.co.uk,,,FALSE,6
127,Airdrie Citizens Advice Bureau (Main Office),61A Stirling Street,Airdrie,,ML6 0As,55.8658,-3.98389,advice@airdriecab.casonline.org.uk,http://www.airdriecab.co.uk/services/debt-and-money,,Advice also provided via the telephone and webchat.,TRUE,FALSE,FALSE,2025-01-16 12:52:55 +0000,2025-01-16 12:52:55 +0000,0800 328 1131,,FALSE,FALSE,TRUE,FALSE,www.airdriecab.co.uk,,,FALSE,6
128,Angus Citizens Advice Bureau  - Arbroath,11 Millgate,Arbroath,,DD11 1NN,56.5582,-2.58643,bureauarbroath@ArbroathCAB.casonline.org.uk,http://www.anguscab.org.uk,,For opening times please visit the website.,TRUE,FALSE,FALSE,2025-01-16 12:52:55 +0000,2025-01-16 12:52:55 +0000,01241 870661,,FALSE,FALSE,TRUE,FALSE,www.anguscab.org.uk,,,FALSE,6
129,Angus Citizens Advice Bureau  - Forfar,19 Queen Street,Forfar,,DD8 3AJ,56.6452,-2.88767,bureau@forfarcab.casonline.org.uk,http://www.anguscab.org.uk,,For opening times please visit the website.,TRUE,FALSE,FALSE,2025-01-16 12:52:56 +0000,2025-01-16 12:52:56 +0000,01307 467096,,FALSE,FALSE,TRUE,FALSE,www.anguscab.org.uk,,,FALSE,6
130,Angus Citizens Advice Bureau  - Montrose,32 Castle Street,Montrose,,DD10 8AG,56.7088,-2.47102,bureau@montrosecab.casonline.org.uk,http://www.anguscab.org.uk,,For opening times please visit the website.,TRUE,FALSE,FALSE,2025-01-16 12:52:56 +0000,2025-01-16 12:52:57 +0000,01674 673263,,FALSE,FALSE,TRUE,FALSE,www.anguscab.org.uk,,,FALSE,6
131,Argyll & Bute Citizens Advice Bureau - Campbeltown Outreach,Job Centre Plus Office 40 Hall Street,Campbeltown,,PA28 6BZ,55.4231,-5.60157,,https://www.cas.org.uk/bureaux/argyll-and-bute-cab-campbeltown-outreach,,Appointments only - first Wednesday of the month,TRUE,FALSE,FALSE,2025-01-16 12:52:57 +0000,2025-01-16 12:52:57 +0000,01546 605550,,FALSE,FALSE,TRUE,FALSE,www.argyllandbutecab.org.uk,,,FALSE,6
132,Argyll & Bute Citizens Advice Bureau - Dunoon Outreach,"Queens Hall, Argyll Street",Dunoon,,PA23 7HH,55.9473,-4.92408,,https://www.cas.org.uk/bureaux/argyll-and-bute-cab-dunoon-outreach,,"Mondays: 10.00 - 13.00 and 14.00 - 16.00
Tuesdays: 09.00 - 13.00
Fridays: 10.00 - 13.00 and 14.00 - 16.00",TRUE,FALSE,FALSE,2025-01-16 12:52:58 +0000,2025-01-16 12:52:58 +0000,01546 605550,,FALSE,FALSE,TRUE,FALSE,www.argyllandbutecab.org.uk,,,FALSE,6
133,Argyll & Bute Citizens Advice Bureau - Helensburgh Extension,65-67 West Princes Street,Helensburgh,,G84 8BN,56.0046,-4.73848,,https://www.cas.org.uk/bureaux/argyll-bute-cab-helensburgh-extension,,"Mondays: 10.00 - 13.00 and 14.00 - 16.00
Tuesdays: 10.00 - 13.00 and 14.00 - 16.00
Wednesdays: 10.00 - 13.00 and 14.00 - 16.00",TRUE,FALSE,FALSE,2025-01-16 12:52:58 +0000,2025-01-16 12:52:58 +0000,01546 605550,,FALSE,FALSE,TRUE,FALSE,www.argyllandbutecab.org.uk,,,FALSE,6
134,Argyll & Bute Citizens Advice Bureau - Main Office,10 Argyll Street,Lochgilphead,Argyll,PA31 8NE,56.0383,-5.43295,,http://www.argyllandbutecab.org.uk,,,TRUE,FALSE,FALSE,2025-01-16 12:52:59 +0000,2025-01-16 12:52:59 +0000,01546 605550,,FALSE,FALSE,TRUE,FALSE,www.argyllandbutecab.org.uk,,,FALSE,6
135,Argyll & Bute Citizens Advice Bureau - Oban Outreach,Job Centre Plus Office Mathieson House 1 Miller Road,Oban,,PA34 4AF,56.4077,-5.46874,,https://www.cas.org.uk/bureaux/argyll-and-bute-cab-oban-outreach,,Appointments only - last Thursday of the month,TRUE,FALSE,FALSE,2025-01-16 12:52:59 +0000,2025-01-16 12:52:59 +0000,01546 605550,,FALSE,FALSE,TRUE,FALSE,www.argyllandbutecab.org.uk,,,FALSE,6
136,Banff and Buchan Citizens Advice Bureau,Townhouse,Broad Street,Peterhead,AB42 1BY,57.5048,-1.77699,bureau@banffcab.cabnet.org.uk,https://www.cas.org.uk/bureaux/banff-and-buchan-citizens-advice-bureau,,,TRUE,FALSE,FALSE,2025-01-16 12:53:00 +0000,2025-01-16 12:53:00 +0000,01779 471515,,FALSE,FALSE,TRUE,FALSE,www.cas.org.uk/banff-and-buchan-citizens-advice-bureau,,,FALSE,6
137,Barra Citizens Advice Bureau (Western Isles),,Castlebay,Isle of Barra,HS9 5XD,56.9556,-7.48771,bureau@barracab.casonline.org.uk,https://www.cas.org.uk/bureaux/barra-citizens-advice-bureau-western-isles,,For opening times please visit the website.,TRUE,FALSE,FALSE,2025-01-16 12:53:00 +0000,2025-01-16 12:53:00 +0000,1872 810608,,FALSE,FALSE,TRUE,FALSE,https://www.cas.org.uk/bureaux/barra-citizens-advice-bureau-western-isles,,,FALSE,6
138,Bellshill and District Citizen Advice Bureau - Holytown Outreach,Michael  Sherry Centre,Main Street,Holytown,ML1 4TW,55.8231,-3.96971,manager@bellshillcab.casonline.org.uk,http://www.bellshillcab.org.uk/services/debt-and-money,,Thursday only: 12.30 - 14.30. Advice also provided via the telephone and webchat.,TRUE,FALSE,FALSE,2025-01-16 12:53:01 +0000,2025-01-16 12:53:01 +0000,0800 328 1131,,FALSE,FALSE,TRUE,FALSE,www.bellshillcab.org.uk,,,FALSE,6
139,Bellshill and District Citizens Advice Bureau - Orbiston Neighbourhood Centre Outreach,Orbiston Neighbourhood Centre,Busby Road,Bellshill,ML4 2BW,55.8116,-4.02939,manager@bellshillcab.casonline.org.uk,http://www.bellshillcab.org.uk/services/debt-and-money,,Thursday only: 9.30 - 12.00. Advice also provided via the telephone and webchat.,TRUE,FALSE,FALSE,2025-01-16 12:53:01 +0000,2025-01-16 12:53:02 +0000,0800 328 1131,,FALSE,FALSE,TRUE,FALSE,www.bellshillcab.org.uk,,,FALSE,6
140,Bellshill and District Citizens Advice Bureau - Viewpark Outreach,Burnhead Parish Church,92-94 Laburnam Road Viewpark,Bellshill,G71 5DB,55.8301,-4.04827,manager@bellshillcab.casonline.org.uk,http://www.bellshillcab.org.uk/services/debt-and-money,,"Wednesdays: 10.00-13.00 (Drop In)
Fridays: 10.00-13.00 (Appointment only)
Advice also provided via the telephone and webchat.",TRUE,FALSE,FALSE,2025-01-16 12:53:02 +0000,2025-01-16 12:53:02 +0000,0800 328 1131,,FALSE,FALSE,TRUE,FALSE,www.bellshillcab.org.uk,,,FALSE,6
141,Bellshill Citizens Advice Bureau - Main Office,6 Hamilton Road,Bellshill,,ML4 1AQ,55.8183,-4.02594,manager@bellshillcab.casonline.org.uk,http://www.bellshillcab.org.uk/services/debt-and-money,,Advice also provided via the telephone and webchat.,TRUE,FALSE,FALSE,2025-01-16 12:53:03 +0000,2025-01-16 12:53:03 +0000,0800 328 1131,,FALSE,FALSE,TRUE,FALSE,www.bellshillcab.org.uk,,,FALSE,6
142,Caithness Citizens Advice Bureau - Main Office,1a Beach Court,Thurso,Caithness,KW14 1AQ,55.3781,-3.43597,bureau@caithnesscab.casonline.org.uk,https://www.cas.org.uk/bureaux/caithness-citizens-advice-bureau,,,TRUE,FALSE,FALSE,2025-01-16 12:53:03 +0000,2025-01-16 12:53:03 +0000,01847 894243,,FALSE,FALSE,TRUE,FALSE,www.cas.org.uk/caithness-citizens-advice-bureau,,,FALSE,6
143,Caithness Citizens Advice Bureau - Tongue Outreach,Kyle Centre,Tongue,,IV27 4XA,58.4772,-4.41803,bureau@caithnesscab.casonline.org.uk,https://www.cas.org.uk/bureaux/caithness-cab-tongue-outreach,,10.00 - 14.00 (last Thursday of the month),TRUE,FALSE,FALSE,2025-01-16 12:53:04 +0000,2025-01-16 12:53:04 +0000,01847 611 392,,FALSE,FALSE,TRUE,FALSE,,,,FALSE,6
144,Caithness Citizens Advice Bureau - Wick Extension,123 High Street,Wick,,KW1 4LR,58.4428,-3.0899,bureau@caithnesscab.casonline.org.uk,https://www.cas.org.uk/bureaux/caithness-cab-wick-extension,,"Tuesdays: 10.00 - 14.00
Wednesdays: 10.00 - 14.00
Thursdays: 10.00 - 14.00",TRUE,FALSE,FALSE,2025-01-16 12:53:04 +0000,2025-01-16 12:53:05 +0000,01955 605989,,FALSE,FALSE,TRUE,FALSE,,,,FALSE,6
145,Central Borders Citizens Advice Bureau,111 High Street,Galashiels,,TD1 1RZ,55.6183,-2.81192,,https://www.cas.org.uk/bureaux/central-borders-citizens-advice-bureau,,For opening times please visit the website.,TRUE,FALSE,FALSE,2025-01-16 12:53:05 +0000,2025-01-16 12:53:05 +0000,01896 753889,,FALSE,FALSE,TRUE,FALSE,,,,FALSE,6
146,Citizens Advice and Rights Fife - Admin Office,"Units 7 - 8 Craig Mitchell House, Flemington Road",Glenrothes,,KY7 5GE,56.2046,-3.1852,,https://www.cabfife.org.uk/contact/locations/cupar-citizens-advice-bureau,,Administration Office Only,FALSE,FALSE,FALSE,2025-01-16 12:53:05 +0000,2025-01-16 12:53:06 +0000,,,FALSE,FALSE,FALSE,FALSE,www.cabfife.org.uk,,,FALSE,6
147,Citizens Advice and Rights Fife - Buckhaven Outreach,Buckhaven Community Centre Kinnear Street,Buckhaven,Fife,KY8 1BH,56.1714,-3.03752,,https://www.cabfife.org.uk/contact/locations/kirkcaldy-citizens-advice-bureau,,For opening times please visit the website.,TRUE,FALSE,FALSE,2025-01-16 12:53:06 +0000,2025-01-16 12:53:06 +0000,0345 1400 095 (General Advice) or 0345 1400 094 (Debt Advice),,FALSE,FALSE,TRUE,FALSE,www.cabfife.org.uk,,,FALSE,6
148,Citizens Advice and Rights Fife - Cowdenbeath,322 High Street,Cowdenbeath,Fife,KY4 9NT,56.1091,-3.34306,,https://www.cabfife.org.uk/contact/locations/dunfermline,,For opening times please visit the website.,TRUE,FALSE,FALSE,2025-01-16 12:53:07 +0000,2025-01-16 12:53:07 +0000,346 1400 095 (General Advice) or 0345 1400 094 (Debt Advice),,FALSE,FALSE,TRUE,FALSE,www.cabfife.org.uk,,,FALSE,6
149,Citizens Advice and Rights Fife - Cupar,Local County Buildings St Catherine's Street,Cupar,Fife,KY15 4TA,56.3194,-3.00973,,https://www.cabfife.org.uk/contact/locations/cupar-citizens-advice-bureau,,For opening times please visit the website.,TRUE,FALSE,FALSE,2025-01-16 12:53:07 +0000,2025-01-16 12:53:07 +0000,0345 1400 095 (General Advice) or 0345 1400 094 (Debt Advice),,FALSE,FALSE,TRUE,FALSE,www.cabfife.org.uk,,,FALSE,6
150,Citizens Advice and Rights Fife - Dunfermline,4 Abbey Park Place,Dunfermline,Fife,KY12 7PD,56.07,-3.4607,,https://www.cabfife.org.uk/contact/locations/dunfermline,,For opening times please visit the website.,TRUE,FALSE,FALSE,2025-01-16 12:53:08 +0000,2025-01-16 12:53:08 +0000,0345 1400 095 (General Advice) or 0345 1400 094 (Debt Advice),,FALSE,FALSE,TRUE,FALSE,www.cabfife.org.uk,,,FALSE,6
151,Citizens Advice and Rights Fife - Glenrothes,10-12 Pentland Court Saltire Centre,Glenrothes,Fife,KY6 2DA,56.1893,-3.18414,,https://www.cabfife.org.uk/contact/locations/glenrothes-citizens-advice-bureau,,For opening times please visit the website.,TRUE,FALSE,FALSE,2025-01-16 12:53:08 +0000,2025-01-16 12:53:08 +0000,0345 1400 095 (General Advice) or 0345 1400 094 (Debt Advice),,FALSE,FALSE,TRUE,FALSE,www.cabfife.org.uk,,,FALSE,6
152,Citizens Advice and Rights Fife - Kirkcaldy,15 East Fergus Place,Kirkcaldy,Fife,KY12 1XT,56.0866,-3.51688,,https://www.cabfife.org.uk/contact/locations/kirkcaldy-citizens-advice-bureau,,For opening times please visit the website.,TRUE,FALSE,FALSE,2025-01-16 12:53:09 +0000,2025-01-16 12:53:09 +0000,0345 1400 095 (General Advice) or 0345 1400 094 (Debt Advice),,FALSE,FALSE,TRUE,FALSE,www.cabfife.org.uk,,,FALSE,6
153,Citizens Advice and Rights Fife - Leven Outreach,The Greig Institute Forth Street,Leven,Fife,KY8 4TF,56.2234,-2.98969,,https://www.cabfife.org.uk/contact/locations/leven-citizens-advice-bureau,,For opening times please visit the website.,TRUE,FALSE,FALSE,2025-01-16 12:53:09 +0000,2025-01-16 12:53:10 +0000,0345 1400 095 (General Advice) or 0345 1400 094 (Debt Advice),,FALSE,FALSE,TRUE,FALSE,www.cabfife.org.uk,,,FALSE,6
154,Citizens Advice and Rights Fife - St Andrews Extension,Council Office St Mary's Place,St Andrews,Fife,KY16 9UY,56.3401,-2.79958,,https://www.cabfife.org.uk/contact/locations/st-andrews-citizens-advice-bureau,,For opening times please visit the website.,TRUE,FALSE,FALSE,2025-01-16 12:53:10 +0000,2025-01-16 12:53:10 +0000,0345 1400 095 (General Advice) or 0345 1400 094 (Debt Advice),,FALSE,FALSE,TRUE,FALSE,www.cabfife.org.uk,,,FALSE,6
155,Citizens Advice Bureau  West Lothian - Blackburn Outreach,Ashgrove Group Practice Ashgrove,Blackburn,,EH47 7LL,55.8477,-3.67546,,https://www.cas.org.uk/bureaux/cab-west-lothian-blackburn-outreach,,"The service is only available for those registered with the Practice.

Friday  12.30 - 15.30 (appointments only)",TRUE,FALSE,FALSE,2025-01-16 12:53:11 +0000,2025-01-16 12:53:11 +0000,01506 654965,,FALSE,FALSE,TRUE,FALSE,www.cas.org.uk/cab-west-lothian-blackburn-outreach,,,FALSE,6
156,Citizens Advice Bureau  West Lothian - Broxburn Outreach,Strathbrock Partnership Centre 189A West Main Street,Broxburn,,EH52 5LH,55.9329,-3.48395,,,,,TRUE,FALSE,FALSE,2025-01-16 12:53:11 +0000,2025-01-16 12:53:11 +0000,,,FALSE,FALSE,TRUE,FALSE,,,,FALSE,6
157,Citizens Advice Bureau  West Lothian - Dedridge Outreach,"Dedridge Medical Group,  Nigel Rise",Livingston,,EH54 6QQ,55.8798,-3.5084,,https://www.cas.org.uk/bureaux/cab-west-lothian-dedridge-outreach,,"This service is only available to patients of the Health Centre.

Thursday  9.30 - 12.30 (Appointments Only)",TRUE,FALSE,FALSE,2025-01-16 12:53:12 +0000,2025-01-16 12:53:12 +0000,01506 414586,,FALSE,FALSE,TRUE,FALSE,www.cas.org.uk/cab-west-lothian-dedridge-outreach,,,FALSE,6
158,Citizens Advice Bureau  West Lothian - West Calder Outreach,"West Calder Medical Practice, 65 West End, West Calder",West Calder,,EH55 8EJ,55.8497,-3.57832,,https://www.cas.org.uk/bureaux/cab-west-lothian-west-calder-outreach,,"The service is only available for those registered with the Practice.

Tuesday  13.00 - 16.00 (Appointments Only)",TRUE,FALSE,FALSE,2025-01-16 12:53:12 +0000,2025-01-16 12:53:12 +0000,01506 874300,,FALSE,FALSE,TRUE,FALSE,,,,FALSE,6
159,Citizens Advice Bureau West Lothian,Unit 1 Almondbank Centre Shiel Walk,Livingston,,EH54 5EH,55.8969,-3.49726,,http://www.cabwestlothian.org.uk,,,TRUE,FALSE,FALSE,2025-01-16 12:53:13 +0000,2025-01-16 12:53:13 +0000,01506 432 977,,FALSE,FALSE,TRUE,FALSE,www.cabwestlothian.org.uk,,,FALSE,6
160,Citizens Advice Bureau West Lothian - Carmondean Outreach,Carmondean Health Centre,Carmondean,Livingston,EH54 8PY,55.9022,-3.54766,,https://www.cas.org.uk/bureaux/cab-west-lothian-carmondean-outreach,,"Friday  9.15-12.15 (Fortnightly, by appointment only)",TRUE,FALSE,FALSE,2025-01-16 12:53:13 +0000,2025-01-16 12:53:13 +0000,01506 436132,,FALSE,FALSE,TRUE,FALSE,www.cas.org.uk/cab-west-lothian-carmondean-outreach,,,FALSE,6
161,Citizens Advice Bureau West Lothian - Whitburn Outreach,Whitburn Community Development Trust 61 West Main Street,Whitburn,,EH47 0QD,55.8661,-3.68752,,,,,TRUE,FALSE,FALSE,2025-01-16 12:53:14 +0000,2025-01-16 12:53:14 +0000,,,FALSE,FALSE,TRUE,FALSE,,,,FALSE,6
162,Citizens Advice Edinburgh - Bellevue,Bellevue Medical Centre 26 Huntingdon Place,Edinburgh,,EH7 4AT,55.9608,-3.18389,,https://www.cas.org.uk/bureaux/citizens-advice-edinburgh-gp-surgeries-project-bellevue,,"This Outreach Service gives Welfare advice to registered patients of the surgery and is by appointment only

Wednesdays Appointments PM",TRUE,FALSE,FALSE,2025-01-16 12:53:14 +0000,2025-01-16 12:53:14 +0000,"Dr Tolley & Partners: 0131 556 2642
DrGray & Partners: 0131 556 8196",,FALSE,FALSE,TRUE,FALSE,www.cas.org.uk/citizens-advice-edinburgh-gp-surgeries-project-bellevue,,,FALSE,6
163,Citizens Advice Edinburgh - Dundas Street,58 Dundas Street,Edinburgh,,EH3 6QZ,55.9582,-3.20015,,https://www.citizensadviceedinburgh.org.uk/,,,TRUE,FALSE,FALSE,2025-01-16 12:53:15 +0000,2025-01-16 12:53:15 +0000,0131 510 5510,,FALSE,FALSE,TRUE,FALSE,www.citizensadviceedinburgh.org.uk,,,FALSE,6
164,Citizens Advice Edinburgh - Gorgie/Dalry Citizens Advice Bureau,Fountainbridge Library 137 Dundee Street,Edinburgh,,EH11 1BG,55.9287,-3.27311,,https://www.citizensadviceedinburgh.org.uk/,,For opening times please visit the website.,TRUE,FALSE,FALSE,2025-01-16 12:53:15 +0000,2025-01-16 12:53:16 +0000,0131 510 5510,,FALSE,FALSE,TRUE,FALSE,www.citizensadviceedinburgh.org.uk,,,FALSE,6
165,Citizens Advice Edinburgh - GP Surgeries Project: Craigmillar,Craigmillar Medical group 106 Niddrie Mains Road,Edinburgh,,EH16 4DT,55.9326,-3.13583,,https://www.cas.org.uk/bureaux/citizens-advice-edinburgh-%E2%80%93-gp-surgeries-project-craigmillar,,"This Outreach Service gives Welfare Advice  for registered patients of the surgery and is by appointment only

Tuesday  Appointments PM",TRUE,FALSE,FALSE,2025-01-16 12:53:16 +0000,2025-01-16 12:53:16 +0000,0131 536 9500,,FALSE,FALSE,TRUE,FALSE,,,,FALSE,6
166,Citizens Advice Edinburgh - GP Surgeries Project: Inchpark,Inchpark Medical Centre 10 Marmian Crescent,Edinburgh,,EH16 5QU,55.9212,-3.15964,,https://www.cas.org.uk/bureaux/citizens-advice-edinburgh-%E2%80%93-gp-surgeries-project-inchpark,,"This Outreach Service gives Welfare Advice to registered patients of the surgery by appointment only

Tuesdays  Appointments PM",TRUE,FALSE,FALSE,2025-01-16 12:53:16 +0000,2025-01-16 12:53:17 +0000,0131 666 2121,,FALSE,FALSE,TRUE,FALSE,,,,FALSE,6
167,Citizens Advice Edinburgh - GP Surgeries Project: Ladywell,Ladywell Medical Centre 10 Ladywell Road,Edinburgh,,EH12 7TB,55.9402,-3.29018,,https://www.cas.org.uk/bureaux/citizens-advice-edinburgh-%E2%80%93-gp-surgeries-project-ladywell,,"This Outreach Service gives Welfare Advice  for registered patients of the surgery by appointment only

Mondays  Appointments PM",TRUE,FALSE,FALSE,2025-01-16 12:53:17 +0000,2025-01-16 12:53:17 +0000,0131 334 3602,,FALSE,FALSE,TRUE,FALSE,,,,FALSE,6
168,Citizens Advice Edinburgh - GP Surgeries Project: Wester Hailes,Wester Hailes Medical Practice  30 Harvesters Way Healthy Living Centre,Edinburgh,,EH14 3JF,55.9122,-3.28235,,https://www.cas.org.uk/bureaux/citizens-advice-edinburgh-%E2%80%93-gp-surgeries-project-wester-hailes,,"This Outreach Service gives Welfare Advice for registered patients of the surgery by appointment only
Wednesdays AM & PM",TRUE,FALSE,FALSE,2025-01-16 12:53:18 +0000,2025-01-16 12:53:18 +0000,0131 453 9250,,FALSE,FALSE,TRUE,FALSE,,,,FALSE,6
169,Citizens Advice Edinburgh - In Court Advice Service,Edinburgh Sheriff Court 27 Chambers Street Level 6 next to Court 15,Edinburgh,,EH1 1LW,55.9502,-3.19116,,https://www.citizensadviceedinburgh.org.uk/edinburgh-sheriff-court,,This Outreach Service assists clients to resolve matters without the need for court action where appropriate Guides clients through the court process for small claims and summary cause cases and time to pay applications Offers help with completing forms and explains legal terms Also assists with preparing and presenting cases In exceptional circumstances the service can include court representation.,TRUE,FALSE,FALSE,2025-01-16 12:53:18 +0000,2025-01-16 12:53:18 +0000,0131 202 5114,,FALSE,FALSE,TRUE,FALSE,,,,FALSE,6
170,Citizens Advice Edinburgh - Leith Citizens Advice Bureau,23 Dalmeny Street,Edinburgh,,EH6 8PG,55.9651,-3.17457,,https://www.citizensadviceedinburgh.org.uk/,,For opening times please visit the website.,TRUE,FALSE,FALSE,2025-01-16 12:53:19 +0000,2025-01-16 12:53:19 +0000,0131 510 5510,,FALSE,FALSE,TRUE,FALSE,www.citizensadviceedinburgh.org.uk,,,FALSE,6
171,Citizens Advice Edinburgh - Mediation Service,Edinburgh Sheriff Court 27 Chambers Street Level 6 next to Court 15,Edinburgh,,EH1 1LW,55.9502,-3.19116,,https://www.cas.org.uk/bureaux/citizens-advice-edinburgh-mediation-service,,For opening times please visit the website.,TRUE,FALSE,FALSE,2025-01-16 12:53:19 +0000,2025-01-16 12:53:19 +0000,0131 220 1092,,FALSE,FALSE,TRUE,FALSE,,,,FALSE,6
172,Citizens Advice Edinburgh - Muirhouse Citizens Advice Bureau,"31-33 Pennywell Road,",Edinburgh,,EH4 4PJ,55.97,-3.25134,,https://www.citizensadviceedinburgh.org.uk/,,For opening times please visit the website.,TRUE,FALSE,FALSE,2025-01-16 12:53:20 +0000,2025-01-16 12:53:20 +0000,013 2510 5510,,FALSE,FALSE,TRUE,FALSE,www.citizensadviceedinburgh.org.uk,,,FALSE,6
173,Citizens Advice Edinburgh - Portobello Citizens Advice Bureau,8A-8B Bath Street,Portobello,,EH15 1EY,55.9533,-3.11379,,https://www.citizensadviceedinburgh.org.uk/cae-portobello,,For opening times please visit the website.,TRUE,FALSE,FALSE,2025-01-16 12:53:20 +0000,2025-01-16 12:53:20 +0000,0131 510 5510,,FALSE,FALSE,TRUE,FALSE,www.citizensadviceedinburgh.org.uk/portobello,,,FALSE,6
174,Citizens Advice Edinburgh - South Queensferry,"South Queensferry Medical Practice , 41 The Loan",South Queensferry,,EH30 9HA,55.9898,-3.39906,,https://www.cas.org.uk/bureaux/citizens-advice-edinburgh-gp-surgeries-project-south-queensferry,,"Tuesday - Appointments PM
Wednesday - Appointments AM",TRUE,FALSE,FALSE,2025-01-16 12:53:21 +0000,2025-01-16 12:53:21 +0000,0131 510 5510,,FALSE,FALSE,TRUE,FALSE,https://www.cas.org.uk/bureaux/citizens-advice-edinburgh-gp-surgeries-project-south-queensferry,,,FALSE,6
175,Citizens Advice Edinburgh - Veterans First Point,"V1P Lothian, Floor K, Argyle House",3 Lady Lawson Street,Edinburgh,EH3 9DR,55.9639,-3.20446,,https://www.citizensadviceedinburgh.org.uk/veterans-1st-point,,,TRUE,FALSE,FALSE,2025-01-16 12:53:21 +0000,2025-01-16 12:53:21 +0000,0131 220 9920,,FALSE,FALSE,TRUE,FALSE,,,,FALSE,6
176,Clackmannanshire CAB - Alva Outreach,"Conference Centre, Cochrane Hall, West Stirling Street",Alva,,FK12 5LJ,56.1538,-3.80977,,https://www.cas.org.uk/bureaux/clackmannanshire-citizens-advice-bureau,,For opening times please visit the website.,TRUE,FALSE,FALSE,2025-01-16 12:53:22 +0000,2025-01-16 12:53:22 +0000,,,FALSE,FALSE,TRUE,FALSE,www.cas.org.uk/clackmannanshire-citizens-advice-bureau,,,FALSE,6
177,Clackmannanshire CAB - Carers Centre Outreach,Ludgate  March Place,Alloa,,FK10 2AD,56.1181,-3.79564,,https://www.cas.org.uk/bureaux/clackmannanshire-citizens-advice-bureau,,For opening times please visit the website.,TRUE,FALSE,FALSE,2025-01-16 12:53:22 +0000,2025-01-16 12:53:23 +0000,,,FALSE,FALSE,TRUE,FALSE,www.cas.org.uk/clackmannanshire-citizens-advice-bureau,,,FALSE,6
178,Clackmannanshire CAB - Hawkhill Community Centre Outreach,Hawkhill Community Centre 132 Hillcrest Drive,Alloa,,FK10 1SB,56.1152,-3.78173,,https://www.cas.org.uk/bureaux/clackmannanshire-citizens-advice-bureau,,For opening times please visit the website.,TRUE,FALSE,FALSE,2025-01-16 12:53:23 +0000,2025-01-16 12:53:23 +0000,,,FALSE,FALSE,TRUE,FALSE,www.cas.org.uk/clackmannanshire-citizens-advice-bureau,,,FALSE,6
179,Clackmannanshire CAB - Homestart Outreach,Alloa Business Centre 92-94 Whins Road,Alloa,,FK10 3SA,56.1211,-3.78168,,https://www.cas.org.uk/bureaux/clackmannanshire-citizens-advice-bureau,,For opening times please visit the website.,TRUE,FALSE,FALSE,2025-01-16 12:53:23 +0000,2025-01-16 12:53:24 +0000,,,FALSE,FALSE,TRUE,FALSE,www.cas.org.uk/clackmannanshire-citizens-advice-bureau,,,FALSE,6
180,Clackmannanshire CAB - Reachout Outreach,"Unit 27 and 28, Lime Tree House North Castle Street",Alloa,,FK10 1EX,56.1135,-3.74206,,https://www.cas.org.uk/bureaux/clackmannanshire-citizens-advice-bureau,,For opening times please visit the website.,TRUE,FALSE,FALSE,2025-01-16 12:53:24 +0000,2025-01-16 12:53:24 +0000,,,FALSE,FALSE,TRUE,FALSE,www.cas.org.uk/clackmannanshire-citizens-advice-bureau,,,FALSE,6
181,Clackmannanshire CAB - Tullibody Outreach,Tullibody Civic Centre Abercromby Place,Tullibody,,FK10 2RU,56.1315,-3.83653,,https://www.cas.org.uk/bureaux/clackmannanshire-citizens-advice-bureau,,For opening times please visit the website.,TRUE,FALSE,FALSE,2025-01-16 12:53:25 +0000,2025-01-16 12:53:25 +0000,,,FALSE,FALSE,TRUE,FALSE,www.cas.org.uk/clackmannanshire-citizens-advice-bureau,,,FALSE,6
182,Clackmannanshire Citizens Advice Bureau,Glebe Hall Burgh Mews,Alloa,,FK10 1HS,56.1144,-3.79385,,https://www.cas.org.uk/bureaux/clackmannanshire-citizens-advice-bureau,,For opening times please visit the website.,TRUE,FALSE,FALSE,2025-01-16 12:53:25 +0000,2025-01-16 12:53:25 +0000,01259 219 404,,FALSE,FALSE,TRUE,FALSE,www.cas.org.uk/clackmannanshire-citizens-advice-bureau,,,FALSE,6
183,Clydesdale Citizens Advice Bureau,10 - 12 Wide Close,Lanark,,ML11 7LX,55.674,-3.78044,,,,,FALSE,FALSE,FALSE,2025-01-16 12:53:26 +0000,2025-01-16 12:53:26 +0000,,,FALSE,FALSE,FALSE,FALSE,,,,FALSE,6
184,Clydesdale Citizens Advice Bureau - Biggar Outreach,Biggar Library,Biggar,,ML12 6FX,55.6219,-3.52541,,https://www.cas.org.uk/bureaux/clydesdale-cab-biggar-outreach,,Fridays 14.00-16.00,TRUE,FALSE,FALSE,2025-01-16 12:53:26 +0000,2025-01-16 12:53:27 +0000,01555 664301,,FALSE,FALSE,TRUE,FALSE,www.cas.org.uk/bureaux/clydesdale-cab-biggar-outreach,,,FALSE,6
185,Clydesdale Citizens Advice Bureau - Blackwood  School Outreach,"Blackwood Primary School, Carlisle Road",Blackwood,,ML11 9AT,55.6697,-3.92037,,https://www.cas.org.uk/bureaux/clydesdale-cab-blackwood-school-outreach,,Mondays 09.00-11.00,TRUE,FALSE,FALSE,2025-01-16 12:53:27 +0000,2025-01-16 12:53:27 +0000,01555 664301,,FALSE,FALSE,TRUE,FALSE,www.cas.org.uk/bureaux/clydesdale-cab-blackwood-school-outreach,,,FALSE,6
186,Clydesdale Citizens Advice Bureau - Coalburn Outreach,One Stop Shop 42 Coalburn Road,Coalburn,,ML11 0LH,55.5908,-3.88969,,https://www.cas.org.uk/bureaux/clydesdale-cab-coalburn-outreach,,"Monday  13.00 - 17.00 (drop in)

For online advice visit Citizens Advice Guide at www.adviceguide.org.uk/scotland",TRUE,FALSE,FALSE,2025-01-16 12:53:27 +0000,2025-01-16 12:53:28 +0000,01555 664301,,FALSE,FALSE,TRUE,FALSE,www.cas.org.uk/bureaux/clydesdale-cab-coalburn-outreach,,,FALSE,6
187,Clydesdale Citizens Advice Bureau - Crawford Outreach,Crawford Hall,Crawford,,ML12 6TP,55.4673,-3.65095,,https://www.cas.org.uk/bureaux/clydesdale-cab-crawford-outreach,,Friday 09.30-11.30,TRUE,FALSE,FALSE,2025-01-16 12:53:28 +0000,2025-01-16 12:53:28 +0000,01555 664301,,FALSE,FALSE,TRUE,FALSE,www.cas.org.uk/bureaux/clydesdale-cab-crawford-outreach,,,FALSE,6
188,Clydesdale Citizens Advice Bureau - Douglas Outreach,St Brides Community Centre,Douglas,,ML11 0PT,55.558,-3.84489,,https://www.cas.org.uk/bureaux/clydesdale-cab-douglas-outreach,,Tuesday  9.30 - 11.30 (drop in),TRUE,FALSE,FALSE,2025-01-16 12:53:29 +0000,2025-01-16 12:53:29 +0000,01555 664301,,FALSE,FALSE,TRUE,FALSE,www.cas.org.uk/bureaux/clydesdale-cab-douglas-outreach,,,FALSE,6
189,Clydesdale Citizens Advice Bureau - Forth Outreach,"Community Resource Centre , 57 Hawkwood Terrace",Forth,,ML11 8AT,55.7674,-3.68268,,https://www.cas.org.uk/bureaux/clydesdale-cab-forth-outreach,,Thursday  10.00 - 12.00,TRUE,FALSE,FALSE,2025-01-16 12:53:29 +0000,2025-01-16 12:53:29 +0000,01555 664301,,FALSE,FALSE,TRUE,FALSE,www.cas.org.uk/bureaux/clydesdale-cab-forth-outreach,,,FALSE,6
190,Clydesdale Citizens Advice Bureau - Lesmahagow Outreach,"Fountain Hall, Abbeygreen",Lesmahagow,,ML11 0UD,55.5632,-3.88325,,,,Thursday 15.00 - 17.00,TRUE,FALSE,FALSE,2025-01-16 12:53:30 +0000,2025-01-16 12:53:30 +0000,,,FALSE,FALSE,FALSE,FALSE,,,,FALSE,6
191,Clydesdale Citizens Advice Bureau - Rigside Primary,Muirfoot Road,Rigside,,ML11 9LY,55.5952,-3.7818,,https://www.cas.org.uk/bureaux/clydesdale-cab-rigside-primary,,Friday 09.30-11.30,TRUE,FALSE,FALSE,2025-01-16 12:53:30 +0000,2025-01-16 12:53:30 +0000,01555 664301,,FALSE,FALSE,TRUE,FALSE,www.cas.org.uk/bureaux/clydesdale-cab-rigside-primary,,,FALSE,6
192,Clydesdale Citizens Advice Bureau - Woodpark School Outreach,"Woodpark Primary School, Priory Road",Lesmahagow,,ML11 0AA,55.6335,-3.87997,,https://www.cas.org.uk/bureaux/clydesdale-cab-woodpark-school-outreach,,Tuesdays 13.00-15.00,TRUE,FALSE,FALSE,2025-01-16 12:53:31 +0000,2025-01-16 12:53:31 +0000,01555 664301,,FALSE,FALSE,TRUE,FALSE,www.cas.org.uk/bureaux/clydesdale-cab-woodpark-school-outreach,,,FALSE,6
193,Coatbridge Citizens Advice Bureau,Unit 10 Fountain Business Centre Ellis Street,Coatbridge,,ML5 3AA,55.8613,-4.02869,,http://www.coatbridgecab.org.uk/services/debt-and-money,,Advice also provided via the telephone and webchat.,TRUE,FALSE,FALSE,2025-01-16 12:53:31 +0000,2025-01-16 12:53:32 +0000,0800 328 1131,,FALSE,FALSE,TRUE,FALSE,www.coatbridgecab.org.uk/services/debt-and-money,,,FALSE,6
194,Coatbridge Citizens Advice Bureau - Bargeddie Outreach,Bargeddie Safety Zone 61 Gairbraid Terrace,Baillieston,,G69 7SN,55.853,-4.07513,,http://www.coatbridgecab.org.uk/services/debt-and-money,,Advice also provided via the telephone and webchat.,TRUE,FALSE,FALSE,2025-01-16 12:53:32 +0000,2025-01-16 12:53:32 +0000,0800 328 1131,,FALSE,FALSE,TRUE,FALSE,www.coatbridgecab.org.uk/services/debt-and-money,,,FALSE,6
195,Coatbridge Citizens Advice Bureau - Chryston Outreach,The Cultural Centre Lindsaybeg Road,Chryston,,G69 9DL,55.9043,-4.10421,,http://www.coatbridgecab.org.uk/services/debt-and-money,,Advice also provided via the telephone and webchat.,TRUE,FALSE,FALSE,2025-01-16 12:53:32 +0000,2025-01-16 12:53:33 +0000,0800 328 1131,,FALSE,FALSE,TRUE,FALSE,www.coatbridgecab.org.uk/services/debt-and-money,,,FALSE,6
196,Coatbridge Citizens Advice Bureau - Dundyvan Gardens Outreach,"Sheltered Housing, Dundyvan Gardens",Coatbridge,,ML5 4BX,55.8536,-4.02706,,http://www.coatbridgecab.org.uk/services/debt-and-money,,Advice also provided via the telephone and webchat.,TRUE,FALSE,FALSE,2025-01-16 12:53:33 +0000,2025-01-16 12:53:33 +0000,0800 328 1131,,FALSE,FALSE,TRUE,FALSE,www.coatbridgecab.org.uk/services/debt-and-money,,,FALSE,6
197,Coatbridge Citizens Advice Bureau - Glenboig Outreach,Glenboig Neighbourhood House 50-52 Main Street,Glenboig,,ML5 2QT,55.8929,-4.04427,,http://www.coatbridgecab.org.uk/services/debt-and-money,,Advice also provided via the telephone and webchat.,TRUE,FALSE,FALSE,2025-01-16 12:53:34 +0000,2025-01-16 12:53:34 +0000,0800 328 1131,,FALSE,FALSE,TRUE,FALSE,www.coatbridgecab.org.uk/services/debt-and-money,,,FALSE,6
198,Coatbridge Citizens Advice Bureau - Shawhead Community Centre Outreach,"Shawhead Community Centre, 25 Berwick Street",Coatbridge,,ML5 4NH,55.8458,-4.019,,http://www.coatbridgecab.org.uk/services/debt-and-money,,Advice also provided via the telephone and webchat.,TRUE,FALSE,FALSE,2025-01-16 12:53:34 +0000,2025-01-16 12:53:34 +0000,0800 328 1131,,FALSE,FALSE,TRUE,FALSE,www.coatbridgecab.org.uk/services/debt-and-money,,,FALSE,6
199,Coatbridge Citizens Advice Bureau - St James Way Outreach,"St James Way, St James Court",Coatbridge,,ML5 5BN,55.8479,-4.04167,,http://www.coatbridgecab.org.uk/services/debt-and-money,,Advice also provided via the telephone and webchat.,TRUE,FALSE,FALSE,2025-01-16 12:53:35 +0000,2025-01-16 12:53:35 +0000,0800 328 1131,,FALSE,FALSE,TRUE,FALSE,www.coatbridgecab.org.uk/services/debt-and-money,,,FALSE,6
200,Coatbridge Citizens Advice Bureau - Townhead Parish Church Outreach,"Townhead Parish Church, Crinan Crescent",Coatbridge,,ML5 2LH,55.8737,-4.05042,,http://www.coatbridgecab.org.uk/services/debt-and-money,,Advice also provided via the telephone and webchat.,TRUE,FALSE,FALSE,2025-01-16 12:53:35 +0000,2025-01-16 12:53:35 +0000,0800 328 1131,,FALSE,FALSE,TRUE,FALSE,www.coatbridgecab.org.uk/services/debt-and-money,,,FALSE,6
201,Coatbridge Citizens Advice Bureau -Afton Gardens Outreach,"Afton Gardens Sheltered  Housing, 1 Afton Gardens",Coatbridge,,ML5 4PW,55.8532,-4.0005,,http://www.coatbridgecab.org.uk/services/debt-and-money,,Advice also provided via the telephone and webchat.,TRUE,FALSE,FALSE,2025-01-16 12:53:36 +0000,2025-01-16 12:53:36 +0000,0800 328 1131,,FALSE,FALSE,TRUE,FALSE,www.coatbridgecab.org.uk/services/debt-and-money,,,FALSE,6
202,Cumbernauld and Kilsyth Citizens Advice Bureau,"16/17 Carron House, Town Centre",Cumbernauld,,G67 1ER,55.9505,-3.95496,,http://www.cumbernauldcab.org.uk/services/debt-and-money,,Advice also provided via the telephone and webchat,TRUE,FALSE,FALSE,2025-01-16 12:53:37 +0000,2025-01-16 12:53:37 +0000,0800 328 1131,,FALSE,FALSE,TRUE,FALSE,www.cumbernauldcab.org.uk/services/debt-and-money,,,FALSE,6
203,DAGAS Annan Citizens Advice Bureau,19a Bank Street,Annan,,DG12 6AA,54.9869,-3.26227,info@dagcas.org,https://www.cas.org.uk/bureaux/annan-citizens-advice-bureau-dagcas,,For opening times please visit the website.,TRUE,FALSE,FALSE,2025-01-16 12:53:38 +0000,2025-01-16 12:53:38 +0000,0300 303 4321,,FALSE,FALSE,TRUE,FALSE,www.cas.org.uk/bureaux/annan-citizens-advice-bureau-dagcas,,,FALSE,6
204,DAGAS Annan Citizens Advice Bureau  - Langholm Outreach,Langholm Day Centre Charles Street,Langholm,,DG13 OAB,55.2523,-3.12367,info@dagcas.org,https://www.cas.org.uk/bureaux/annan-cab-dagcas-langholm-outreach,,This Outreach Service is available on the 1st and 3rd Monday of the month and is by Appointment Only. Mondays 15.30-16.30,TRUE,FALSE,FALSE,2025-01-16 12:53:38 +0000,2025-01-16 12:53:38 +0000,0300 303 4321,,FALSE,FALSE,TRUE,FALSE,www.cas.org.uk/bureaux/annan-cab-dagcas-langholm-outreach,,,FALSE,6
205,DAGAS Annan Citizens Advice Bureau - Moffat Outreach,Town Hall,Moffat,,DG10 9UK,55.333,-3.41878,info@dagcas.org,https://www.cas.org.uk/bureaux/annan-cab-dagcas-moffat-outreach,,This Outreach Service is by Appointment only. Wednesday  09.30-11.30,TRUE,FALSE,FALSE,2025-01-16 12:53:39 +0000,2025-01-16 12:53:39 +0000,0300 303 4321,,FALSE,FALSE,TRUE,FALSE,www.cas.org.uk/bureaux/annan-cab-dagcas-moffat-outreach,,,FALSE,6
206,DAGAS Castle Douglas Citizens Advice Bureau,"Parish Church Hall, Queen Street",Castle Douglas,,DG7 1EG,54.9401,-3.92876,info@dagcas.org,https://www.cas.org.uk/bureaux/castle-douglas-citizens-advice-dagcas,,For opening times please visit the website.,TRUE,FALSE,FALSE,2025-01-16 12:53:40 +0000,2025-01-16 12:53:40 +0000,0300 303 4321,,FALSE,FALSE,TRUE,FALSE,www.cas.org.uk/bureaux/castle-douglas-citizens-advice-dagcas,,,FALSE,6
207,DAGAS Castle Douglas Citizens Advice Bureau  - Kirkcudbright Outreach,"Kirkcudbright Customer Service Centre, Daar Road",Kirkcudbright,,DG6 4JG,54.835,-4.05276,info@dagcas.org,https://www.cas.org.uk/bureaux/castle-douglas-cab-dagcas-kirkcudbright-outreach,,Monday 10.00 - 13.00 (Drop In) and 13.30 - 16.00 (Appointments Only),TRUE,FALSE,FALSE,2025-01-16 12:53:41 +0000,2025-01-16 12:53:41 +0000,0300 303 4321,,FALSE,FALSE,TRUE,FALSE,www.cas.org.uk/bureaux/castle-douglas-cab-dagcas-kirkcudbright-outreach,,,FALSE,6
208,DAGAS Castle Douglas Citizens Advice Bureau - Dalbeattie Outreach,"Dalbeattie Customer Service Centre, High Street",Dalbeattie,,DG5 4AD,54.9328,-3.82181,info@dagcas.org,https://www.cas.org.uk/bureaux/castle-douglas-cab-dagcas-dalbeattie-outreach,,"Tuesday 13.30 - 16.00 (Appointment Only)
Thursday 09.30 - 13.00 (Drop In)",TRUE,FALSE,FALSE,2025-01-16 12:53:41 +0000,2025-01-16 12:53:41 +0000,0300 303 4321,,FALSE,FALSE,TRUE,FALSE,www.cas.org.uk/bureaux/castle-douglas-cab-dagcas-dalbeattie-outreach,,,FALSE,6
209,DAGAS Dumfries and Galloway Citizens Advice Service,81 - 85 Irish Street,Dumfries,,DG1 2PQ,55.0677,-3.61172,info@dagcas.org,https://www.cas.org.uk/bureaux/dumfries-and-galloway-citizens-advice-service-dagcas,,For opening times please visit the website.,TRUE,FALSE,FALSE,2025-01-16 12:53:42 +0000,2025-01-16 12:53:42 +0000,0300 303 4321,,FALSE,FALSE,TRUE,FALSE,www.cas.org.uk/bureaux/dumfries-and-galloway-citizens-advice-service-dagcas,,,FALSE,6
210,DAGAS Dumfries and Galloway Citizens Advice Service - Kelloholm Outreach,Mill Hill Centre Corserig Crescent Kelloholm,Sanquhar,,DG4 6EL,55.3841,-3.99179,info@dagcas.org,https://www.cas.org.uk/bureaux/dumfries-cab-dagcas-kelloholm-outreach,,This Outreach Service is by appointment only. Wednesday  14.00 - 16.00,TRUE,FALSE,FALSE,2025-01-16 12:53:43 +0000,2025-01-16 12:53:43 +0000,0300 303 4321,,FALSE,FALSE,TRUE,FALSE,www.cas.org.uk/bureaux/dumfries-cab-dagcas-kelloholm-outreach,,,FALSE,6
211,DAGAS Dumfries and Galloway Citizens Advice Service - Lincluden Outreach,North West Resource Centre College Drive,Lincluden,,DG2 0BX,55.082,-3.62088,info@dagcas.org,https://www.cas.org.uk/bureaux/dumfries-cab-dagcas-lincluden-outreach,,This Outreach Service is by appointment only. Monday and Wednesday  10.00 - 12.00,TRUE,FALSE,FALSE,2025-01-16 12:53:43 +0000,2025-01-16 12:53:44 +0000,0300 303 4321,,FALSE,FALSE,TRUE,FALSE,www.cas.org.uk/bureaux/dumfries-cab-dagcas-lincluden-outreach,,,FALSE,6
212,DAGAS Dumfries and Galloway Citizens Advice Service - Midpark Hospital Outreach,Crichton Royal Hospital Midpark Bankend Road,Dumfries,,DG1 4TN,55.0506,-3.5893,info@dagcas.org,https://www.cas.org.uk/bureaux/dumfries-cab-dagcas-midpark-hospital-outreach,,This Outreach Service is by appointment only. Monday 10.00 - 12.00,TRUE,FALSE,FALSE,2025-01-16 12:53:44 +0000,2025-01-16 12:53:44 +0000,0300 303 4321,,FALSE,FALSE,TRUE,FALSE,www.cas.org.uk/bureaux/dumfries-cab-dagcas-midpark-hospital-outreach,,,FALSE,6
213,DAGAS Dumfries and Galloway Citizens Advice Service - Royal Infirmary Outreach,"Dumfries and Galloway Royal Infirmary (DGRI), Bankend Road, S4L Clinic, Main Reception",Dumfries,,DG1 4AP,55.0563,-3.59924,info@dagcas.org,https://www.cas.org.uk/bureaux/dumfries-cab-dagcas-royal-infirmary-outreach,,"This Outreach Service is by Drop in - no appointments required.
Monday 14.00 - 17.00 (General)
Wednesday 10.00 - 12.00 (Macmillan Support4Life)
Friday 10.00 - 12.00 (Macmillan Support4Life)",TRUE,FALSE,FALSE,2025-01-16 12:53:45 +0000,2025-01-16 12:53:45 +0000,0300 303 4321,,FALSE,FALSE,TRUE,FALSE,www.cas.org.uk/bureaux/dumfries-cab-dagcas-royal-infirmary-outreach,,,FALSE,6
214,DAGAS Dumfries and Galloway Citizens Advice Service - Sanquhar Outreach,Council Offices 100 High Street,Sanquhar,,DG4 6EB,55.3669,-3.92246,info@dagcas.org,https://www.cas.org.uk/bureaux/dumfries-cab-dagcas-sanquhar-outreach,,This Outreach Service is available every second Wednesday for General Advice and every 4th Wednesday for Debt Advice and is by appointment only. Wednesday  10.00-12.00,TRUE,FALSE,FALSE,2025-01-16 12:53:45 +0000,2025-01-16 12:53:45 +0000,0300 303 4321,,FALSE,FALSE,TRUE,FALSE,www.cas.org.uk/bureaux/dumfries-cab-dagcas-sanquhar-outreach,,,FALSE,6
215,DAGCAS Stranraer Citizens Advice Bureau,"Burns House, 32 Harbour Street",Stranraer,,DG9 7RD,54.9058,-5.02625,info@dagcas.org,https://www.cas.org.uk/bureaux/stranraer-citizens-advice-bureau-dagcas,,Monday - Friday 09.00-17.00,TRUE,FALSE,FALSE,2025-01-16 12:53:46 +0000,2025-01-16 12:53:46 +0000,0300 303 4321,,FALSE,FALSE,TRUE,FALSE,www.cas.org.uk/bureaux/stranraer-citizens-advice-bureau-dagcas,,,FALSE,6
216,DAGCAS Stranraer Citizens Advice Bureau  - Newton Stewart Outreach,"Newton Stewart Library , Church Street",Newton Stewart,,DG8 6ER,54.9576,-4.4857,info@dagcas.org,https://www.cas.org.uk/bureaux/stranraer-cab-dagcas-newton-stewart-outreach,,This Outreach Service is by Appointment Only. Friday 13.00-16.00,TRUE,FALSE,FALSE,2025-01-16 12:53:46 +0000,2025-01-16 12:53:47 +0000,0300 303 4321,,FALSE,FALSE,TRUE,FALSE,www.cas.org.uk/bureaux/stranraer-cab-dagcas-newton-stewart-outreach,,,FALSE,6
217,Dalkeith and  District Citizens Advice Bureau,8 Buccleuch Street,Dalkeith,,EH22 1HA,55.8928,-3.07153,,https://www.cas.org.uk/bureaux/dalkeith-and-district-citizens-advice-bureau,,For opening times please visit the website.,TRUE,FALSE,FALSE,2025-01-16 12:53:47 +0000,2025-01-16 12:53:47 +0000,0131 660 1636,,FALSE,FALSE,TRUE,FALSE,www.cas.org.uk/bureaux/dalkeith-and-district-citizens-advice-bureau,,,FALSE,6
218,Dalkeith and  District Citizens Advice Bureau - Danderhall Outreach,Danderhall Library,Danderhall,,EH22 1QD,55.912,-3.10635,,https://www.cas.org.uk/bureaux/dalkeith-and-district-cab-danderhall-outreach,,General advice session Tuesdays 10.00 - 12.00. (Drop-In) Service no appointment required,TRUE,FALSE,FALSE,2025-01-16 12:53:47 +0000,2025-01-16 12:53:48 +0000,0131 663 1616,,FALSE,FALSE,TRUE,FALSE,www.cas.org.uk/bureaux/dalkeith-and-district-cab-danderhall-outreach,,,FALSE,6
219,Dalkeith and  District Citizens Advice Bureau - Gorebridge Library Outreach,Gorebridge Library,Gorebridge,,EH23 4TT,55.8451,-3.05042,,https://www.cas.org.uk/bureaux/dalkeith-and-district-cab-gorebridge-outreach,,Thursdays 10.00-13.00,TRUE,FALSE,FALSE,2025-01-16 12:53:48 +0000,2025-01-16 12:53:48 +0000,01875 820630,,FALSE,FALSE,TRUE,FALSE,www.cas.org.uk/bureaux/dalkeith-and-district-cab-gorebridge-outreach,,,FALSE,6
220,Dalkeith and  District Citizens Advice Bureau - Newbyers Surgery Outreach,Newbyers Surgery,Gorebridge,,EH23 4TD,55.8428,-3.05101,,https://www.cas.org.uk/bureaux/dalkeith-and-district-cab-newbyers-surgery-outreach,,"This Outreach Service is for Registered Patients of the Surgery and is by appointment only

General advice sessions Wednesday 09.30 - 12.00.",TRUE,FALSE,FALSE,2025-01-16 12:53:49 +0000,2025-01-16 12:53:49 +0000,01875 820405,,FALSE,FALSE,TRUE,FALSE,www.cas.org.uk/bureaux/dalkeith-and-district-cab-newbyers-surgery-outreach,,,FALSE,6
221,Denny and Dunipace Citizens Advice Bureau,24 Duke Street,Denny,Stirlingshire,FK6 6DD,56.0232,-3.90953,bureau@dennycab.casonline.org.uk,http://www.dennyanddunipacecab.org.uk,,For opening times please visit the website.,TRUE,FALSE,FALSE,2025-01-16 12:53:49 +0000,2025-01-16 12:53:49 +0000,01324 823 118,,FALSE,FALSE,TRUE,FALSE,www.dennyanddunipacecab.org.uk,,,FALSE,6
222,Denny and Dunipace Citizens Advice Bureau - Bonnybridge Outreach,"Bonnybridge Community Centre , Bridge Street",Bonnybridge,,FK4 1AA,56.0009,-3.88732,bureau@dennycab.casonline.org.uk,https://www.cas.org.uk/bureaux/denny-and-dunipace-cab-bonnybridge-outreach,,Wednesday 11.00-14.00,TRUE,FALSE,FALSE,2025-01-16 12:53:50 +0000,2025-01-16 12:53:50 +0000,,,FALSE,FALSE,TRUE,FALSE,www.cas.org.uk/bureaux/denny-and-dunipace-cab-bonnybridge-outreach,,,FALSE,6
223,Denny and Dunipace Citizens Advice Bureau - Denny Parish Church Hall Outreach,Denny Parish Church Hall,Denny,,FK6 6DB,56.0228,-3.90887,bureau@dennycab.casonline.org.uk,https://www.cas.org.uk/bureaux/denny-and-dunipace-cab-denny-parish-church-hall-outreach,,Wednesday  9.30 - 11.30 (drop in),TRUE,FALSE,FALSE,2025-01-16 12:53:50 +0000,2025-01-16 12:53:50 +0000,,,FALSE,FALSE,TRUE,FALSE,www.cas.org.uk/bureaux/denny-and-dunipace-cab-denny-parish-church-hall-outreach,,,FALSE,6
224,Dundee Citizens Advice Bureau,Dundee Central Library Level 4 Wellgate Centre,Dundee,,DD1 1DB,56.4646,-2.96926,bureau@dundeecab.casonline.org.uk,https://www.dundeecab.org.uk/visiting-us,,"Mondays - Thursday 09.00 - 17.00 (Drop In Sessions 09.30 - 12.00 and 13.00 - 15.00)
Fridays 09.00 - 17.00 (Drop In Sessions 09.30 - 12.00 and 13.00 - 15.00)",TRUE,FALSE,FALSE,2025-01-16 12:53:51 +0000,2025-01-16 12:53:51 +0000,01382 307 494,,FALSE,FALSE,TRUE,FALSE,www.dundeecab.org/visiting-us,,,FALSE,6
225,Dundee Citizens Advice Bureau - Charleston Outreach,"Taught by Muhammad Community Cafe, Charleston Community Centre, Craigowen Road",Dundee,,DD2 4NL,56.4737,-3.03502,bureau@dundeecab.casonline.org.uk,https://www.dundeecab.org.uk/visiting-us,,Tuesday 12.30-14.30,TRUE,FALSE,FALSE,2025-01-16 12:53:51 +0000,2025-01-16 12:53:52 +0000,01382 307 494,,FALSE,FALSE,TRUE,FALSE,www.dundeecab.org/visiting-us,,,FALSE,6
226,Dundee Citizens Advice Bureau - Douglas Outreach,"Taught by Muhammad Community Cafe, Douglas Community Centre, Balmoral Avenue",Dundee,,DD4 8SD,56.4792,-2.90436,bureau@dundeecab.casonline.org.uk,https://www.dundeecab.org.uk/visiting-us,,Mondays 12.00-14.30,TRUE,FALSE,FALSE,2025-01-16 12:53:52 +0000,2025-01-16 12:53:52 +0000,01382 307 494,,FALSE,FALSE,TRUE,FALSE,www.dundeecab.org/visiting-us,,,FALSE,6
227,Dundee Citizens Advice Bureau - Maggies Centre Outreach,"Maggies Centre, Tom McDonald Avenue",Dundee,,DD2 1NH,56.4634,-3.04568,bureau@dundeecab.casonline.org.uk,https://www.dundeecab.org.uk/visiting-us,,Thursday 09.00-12.00,TRUE,FALSE,FALSE,2025-01-16 12:53:52 +0000,2025-01-16 12:53:53 +0000,01382 307 494,,FALSE,FALSE,TRUE,FALSE,www.dundeecab.org/visiting-us,,,FALSE,6
228,Dundee Citizens Advice Bureau - Ninewells Hospital Outreach,"Ninewells Hospital, James Arrot Drive",Dundee,,DD1 9SY,56.4618,-2.9687,bureau@dundeecab.casonline.org.uk,https://www.dundeecab.org.uk/visiting-us,,Tuesdays 13.00-16.00,TRUE,FALSE,FALSE,2025-01-16 12:53:53 +0000,2025-01-16 12:53:53 +0000,01382 307 494,,FALSE,FALSE,TRUE,FALSE,www.dundeecab.org/visiting-us,,,FALSE,6
229,Dundee Citizens Advice Bureau - University Outreach,Dundee University Students Association Airlie Place,Dundee,,DD1 4HP,56.4577,-2.98211,bureau@dundeecab.casonline.org.uk,https://www.dundeecab.org.uk/visiting-us,,"For Students of Dundee University only

Tuesday 13.00 - 16.00 (Drop In)",TRUE,FALSE,FALSE,2025-01-16 12:53:54 +0000,2025-01-16 12:53:54 +0000,01382 307 494,,FALSE,FALSE,TRUE,FALSE,www.dundeecab.org/visiting-us,,,FALSE,6
230,East and Central Sutherland Citizens Advice Bureau,Station Road,Golspie,Sutherland,KW10 6SN,57.9722,-3.98214,advice@esvas.casonline.org.uk,https://www.cas.org.uk/bureaux/east-and-central-sutherland-citizens-advice-bureau,,"Monday -Thursday 10.00 - 13.00; 14.00 - 16.00
Fridays 10.00 - 13.00",TRUE,FALSE,FALSE,2025-01-16 12:53:54 +0000,2025-01-16 12:53:54 +0000,01408 633000,,FALSE,FALSE,TRUE,FALSE,www.cas.org.uk/bureaux/east-and-central-sutherland-citizens-advice-bureau,,,FALSE,6
231,East and Central Sutherland Citizens Advice Bureau - Dornoch Outreach,"Highland Council Service Point , Castle Street",Dornoch,,IV25 3SD,57.88,-4.0284,advice@esvas.casonline.org.uk,https://www.cas.org.uk/bureaux/east-and-central-sutherland-cab-dornoch-outreach,,Wednesday 10.00 - 12.00 (Fortnightly),TRUE,FALSE,FALSE,2025-01-16 12:53:55 +0000,2025-01-16 12:53:55 +0000,01408 633000,,FALSE,FALSE,TRUE,FALSE,www.cas.org.uk/bureaux/east-and-central-sutherland-cab-dornoch-outreach,,,FALSE,6
232,East Ayrshire Citizens Advice Bureau,The Gateway Centre,3 Foregate Square,Kilmarnock,KA1 1LN,55.6104,-4.49576,,https://www.cas.org.uk/bureaux/east-ayrshire-citizens-advice-bureau,,For opening times please visit the website.,TRUE,FALSE,FALSE,2025-01-16 12:53:55 +0000,2025-01-16 12:53:55 +0000,01563 543379,,FALSE,FALSE,TRUE,FALSE,www.cas.org.uk/bureaux/east-ayrshire-citizens-advice-bureau,,,FALSE,6
233,East Ayrshire Citizens Advice Bureau - Cumnock Extension,77a Townhead Street,Cumnock,,KA18 1LF,55.4544,-4.26214,,,,,TRUE,FALSE,FALSE,2025-01-16 12:53:56 +0000,2025-01-16 12:53:56 +0000,,,FALSE,FALSE,TRUE,FALSE,www.cas.org.uk/bureaux/east-ayrshire-cab-cumnock-extensionhttps://www.cas.org.uk/bureaux/east-ayrshire-cab-cumnock-extension,,,FALSE,6
234,East Ayrshire Citizens Advice Bureau - Dalmellington Outreach,"Dalmellington Health Centre, 33 Main Street",Dalmellington,,KA6 7QL,55.323,-4.39868,,https://www.cas.org.uk/bureaux/east-ayrshire-cab-dalmellington-outreach,,"Tuesday 10.00 - 13.00 (Drop In)
There are no drop in surgeries last week of the month",TRUE,FALSE,FALSE,2025-01-16 12:53:56 +0000,2025-01-16 12:53:57 +0000,,,FALSE,FALSE,TRUE,FALSE,www.cas.org.uk/bureaux/east-ayrshire-cab-dalmellington-outreach,,,FALSE,6
235,East Ayrshire Citizens Advice Bureau - Drongan,"The Medical Centre, Mill of Shield Road",Drongan,,KA6 7AY,55.4344,-4.46069,,https://www.cas.org.uk/bureaux/east-ayrshire-cab-drongan-outreach,,"Friday  10.00 - 12.30 (Drop In)
There are no drop in surgeries last week of the month",TRUE,FALSE,FALSE,2025-01-16 12:53:57 +0000,2025-01-16 12:53:57 +0000,,,FALSE,FALSE,TRUE,FALSE,www.cas.org.uk/bureaux/east-ayrshire-cab-drongan-outreach,,,FALSE,6
236,East Ayrshire Citizens Advice Bureau - Muirkirk,Muirkirk Community Library 2 Burns Avenue,Muirkirk,,KA18 3RH,55.5222,-4.0675,,https://www.cas.org.uk/bureaux/east-ayrshire-cab-muirkirk-outreach,,"Thursday  10.00 - 12.30 (Drop In)
There are no drop in surgeries last week of the month",TRUE,FALSE,FALSE,2025-01-16 12:53:58 +0000,2025-01-16 12:53:58 +0000,,,FALSE,FALSE,TRUE,FALSE,www.cas.org.uk/bureaux/east-ayrshire-cab-muirkirk-outreach,,,FALSE,6
237,East Ayrshire Citizens Advice Bureau - New Cumnock Outreach,"New Cumnock Town Hall , 15 Castle",New Cumnock,,KA18 4AN,55.3962,-4.18465,,https://www.cas.org.uk/bureaux/east-ayrshire-cab-new-cumnock-outreach,,Wednesdays 10.00-12.30,TRUE,FALSE,FALSE,2025-01-16 12:53:58 +0000,2025-01-16 12:53:58 +0000,,,FALSE,FALSE,TRUE,FALSE,www.cas.org.uk/bureaux/east-ayrshire-cab-new-cumnock-outreach,,,FALSE,6
238,East Ayrshire Citizens Advice Bureau - Newmilns Outreach,43-45 Main Street,Newmilns,,KA16 9DA,55.6075,-4.32553,,https://www.cas.org.uk/bureaux/east-ayrshire-cab-newmilns-outreach,,Mondays 10.00-12.00,TRUE,FALSE,FALSE,2025-01-16 12:53:59 +0000,2025-01-16 12:53:59 +0000,,,FALSE,FALSE,TRUE,FALSE,www.cas.org.uk/bureaux/east-ayrshire-cab-newmilns-outreach,,,FALSE,6
239,East Ayrshire Citizens Advice Bureau - Patna Outreach,"Patna Community Centre, Doonside Avenue",Patna,,KA6 7LX,55.3607,-4.50087,,https://www.cas.org.uk/bureaux/east-ayrshire-cab-patna-outreach,,Thursday 10.00-12.30 (Drop In),TRUE,FALSE,FALSE,2025-01-16 12:53:59 +0000,2025-01-16 12:53:59 +0000,,,FALSE,FALSE,TRUE,FALSE,www.cas.org.uk/bureaux/east-ayrshire-cab-patna-outreach,,,FALSE,6
240,East Dunbartonshire Citizens Advice Bureau,11 Alexandra Street,Kirkintilloch,,G66 1HB,55.9382,-4.15598,bureau@eastdunbartoncab.casonline.org.uk,https://www.cas.org.uk/bureaux/east-dunbartonshire-citizens-advice-bureau,,For opening times please visit the website.,TRUE,FALSE,FALSE,2025-01-16 12:54:00 +0000,2025-01-16 12:54:00 +0000,0141 775 3220,,FALSE,FALSE,TRUE,FALSE,www.cas.org.uk/bureaux/east-dunbartonshire-citizens-advice-bureau,,,FALSE,6
241,East Dunbartonshire Citizens Advice Bureau - Auchinairn,"Auchinairn Community and Early Years Centre, Beech Road",Bishopbriggs,,G61 1NE,55.9111,-4.32798,bureau@eastdunbartoncab.casonline.org.uk,https://www.cas.org.uk/bureaux/east-dunbartonshire-cab-auchinairn-outreach,,Wednesday 10-12.00 (Appointment only),TRUE,FALSE,FALSE,2025-01-16 12:54:00 +0000,2025-01-16 12:54:00 +0000,0141 775 3220,,FALSE,FALSE,TRUE,FALSE,www.cas.org.uk/bureaux/east-dunbartonshire-cab-auchinairn-outreach,,,FALSE,6
242,East Dunbartonshire Citizens Advice Bureau - Bearsden Hub Outreach,"Bearsden Hub, 69 Drymen Road",Bearsden,,G61 3QT,55.9197,-4.33451,bureau@eastdunbartoncab.casonline.org.uk,https://www.cas.org.uk/bureaux/east-dunbartonshire-cab-bearsden-hub-outreach,,Wednesdays and Thursdays 10.00-12.00,TRUE,FALSE,FALSE,2025-01-16 12:54:01 +0000,2025-01-16 12:54:01 +0000,0141 775 3220,,FALSE,FALSE,TRUE,FALSE,www.cas.org.uk/bureaux/east-dunbartonshire-cab-bearsden-hub-outreach,,,FALSE,6
243,East Dunbartonshire Citizens Advice Bureau - Bearsden: New Kilpatrick Church Hall Outreach,"New Kilpatrick Church Hall, 28 Kirk Place",Bearsden,,G61 3RT,55.9215,-4.33224,bureau@eastdunbartoncab.casonline.org.uk,https://www.cas.org.uk/bureaux/east-dunbartonshire-cab-bearsden-new-kilpatrick-church-hall-outreach,,Thursdays 12.30-14.00,TRUE,FALSE,FALSE,2025-01-16 12:54:01 +0000,2025-01-16 12:54:02 +0000,0141 775 3220,,FALSE,FALSE,TRUE,FALSE,www.cas.org.uk/bureaux/east-dunbartonshire-cab-bearsden-new-kilpatrick-church-hall-outreach,,,FALSE,6
244,East Dunbartonshire Citizens Advice Bureau - Bishopbriggs Extension,Unit 5 Springfield House Emerson Road,Bishopbriggs,,G64 1QE,55.9033,-4.2226,bureau@eastdunbartoncab.casonline.org.uk,https://www.cas.org.uk/bureaux/east-dunbartonshire-cab-bishopbriggs-extension,,For opening times please visit the website.,TRUE,FALSE,FALSE,2025-01-16 12:54:02 +0000,2025-01-16 12:54:02 +0000,0141 563 0220,,FALSE,FALSE,TRUE,FALSE,www.cas.org.uk/bureaux/east-dunbartonshire-cab-bishopbriggs-extension,,,FALSE,6
245,East Dunbartonshire Citizens Advice Bureau - Hillhead Community Centre Outreach,"Hillhead Community Centre, 169 Meiklehill Road",Kirkintilloch,,G66 2JT,55.9417,-4.14103,bureau@eastdunbartoncab.casonline.org.uk,https://www.cas.org.uk/bureaux/east-dunbartonshire-cab-hillhead-community-centre-outreach,,Mondays 9.00-12.00,TRUE,FALSE,FALSE,2025-01-16 12:54:02 +0000,2025-01-16 12:54:03 +0000,0141 775 3220,,FALSE,FALSE,TRUE,FALSE,www.cas.org.uk/bureaux/east-dunbartonshire-cab-hillhead-community-centre-outreach,,,FALSE,6
246,East Dunbartonshire Citizens Advice Bureau - Kirkintilloch: Health and Care Centre Outreach,"Health and Care Centre, 10 Saramago Street",Kirkintilloch,,G66 3BF,55.9346,-4.1517,bureau@eastdunbartoncab.casonline.org.uk,https://www.cas.org.uk/bureaux/east-dunbartonshire-cab-kirkintilloch-health-and-care-centre-outreach,,Wednesdays 09.30-12.00,TRUE,FALSE,FALSE,2025-01-16 12:54:03 +0000,2025-01-16 12:54:03 +0000,0141 775 3220,,FALSE,FALSE,TRUE,FALSE,www.cas.org.uk/bureaux/east-dunbartonshire-cab-kirkintilloch-health-and-care-centre-outreach,,,FALSE,6
247,East Dunbartonshire Citizens Advice Bureau - Kirkintilloch: Jobcentreplus Outreach,"Jobcentre Plus, Queens Street",Kirkintilloch,,G66 1JN,55.9384,-4.15984,bureau@eastdunbartoncab.casonline.org.uk,https://www.cas.org.uk/bureaux/east-dunbartonshire-cab-kirkintilloch-jobcentreplus-outreach,,Tuesdays 10.00-12.00,TRUE,FALSE,FALSE,2025-01-16 12:54:04 +0000,2025-01-16 12:54:04 +0000,0141 775 3220,,FALSE,FALSE,TRUE,FALSE,www.cas.org.uk/bureaux/east-dunbartonshire-cab-kirkintilloch-jobcentreplus-outreach,,,FALSE,6
248,East Dunbartonshire Citizens Advice Bureau - Kirkintilloch: New College Outreach,"New College Lanarkshire , 50 Southbank Road, Kirkintilloch Campas",Kirkintilloch,,G66 1NH,55.9374,-4.15581,bureau@eastdunbartoncab.casonline.org.uk,https://www.cas.org.uk/bureaux/east-dunbartonshire-cab-kirkintilloch-new-college-outreach,,Thursday 10.00-12.00,TRUE,FALSE,FALSE,2025-01-16 12:54:04 +0000,2025-01-16 12:54:04 +0000,0141 775 3220,,FALSE,FALSE,TRUE,FALSE,www.cas.org.uk/bureaux/east-dunbartonshire-cab-kirkintilloch-new-college-outreach,,,FALSE,6
249,East Dunbartonshire Citizens Advice Bureau - Lennoxtown Outreach,"Lennoxtown Hub, 46 Main Street",Lennoxtown,,G66 7JJ,55.9745,-4.20195,bureau@eastdunbartoncab.casonline.org.uk,https://www.cas.org.uk/bureaux/east-dunbartonshire-cab-lennoxtown-outreach,,Thursdays 10.00-12.00,TRUE,FALSE,FALSE,2025-01-16 12:54:05 +0000,2025-01-16 12:54:05 +0000,0141 775 3220,,FALSE,FALSE,TRUE,FALSE,www.cas.org.uk/bureaux/east-dunbartonshire-cab-lennoxtown-outreach,,,FALSE,6
250,East Dunbartonshire Citizens Advice Bureau - Milngavie Clinic,"Milngavie Clinic, North Campbell Avenue",Milngavie,,G62 7AA,55.9409,-4.32376,bureau@eastdunbartoncab.casonline.org.uk,https://www.cas.org.uk/bureaux/east-dunbartonshire-cab-milngavie-clinic,,Wednesdays 10.00-15.00,TRUE,FALSE,FALSE,2025-01-16 12:54:05 +0000,2025-01-16 12:54:05 +0000,0141 775 3220,,FALSE,FALSE,TRUE,FALSE,www.cas.org.uk/bureaux/east-dunbartonshire-cab-milngavie-clinic,,,FALSE,6
251,East Dunbartonshire Citizens Advice Bureau - Milngavie Community Centre,"Community Centre and Library, Allander Road",Milngavie,,G62 8PN,55.9431,-4.32059,bureau@eastdunbartoncab.casonline.org.uk,https://www.cas.org.uk/bureaux/east-dunbartonshire-cab-milngavie-community-centre,,Thursday 10.00-12.00,TRUE,FALSE,FALSE,2025-01-16 12:54:06 +0000,2025-01-16 12:54:06 +0000,0141 775 3220,,FALSE,FALSE,TRUE,FALSE,www.cas.org.uk/bureaux/east-dunbartonshire-cab-milngavie-community-centre,,,FALSE,6
252,East Dunbartonshire Citizens Advice Bureau - Milngavie Outreach,The Fraser Centre,Milngavie,,G62 6PA,55.941,-4.31746,bureau@eastdunbartoncab.casonline.org.uk,https://www.cas.org.uk/bureaux/east-dunbartonshire-cab-milngavie-outreach,,For opening times please visit the website.,TRUE,FALSE,FALSE,2025-01-16 12:54:06 +0000,2025-01-16 12:54:06 +0000,0141 775 3220,,FALSE,FALSE,TRUE,FALSE,www.cas.org.uk/bureaux/east-dunbartonshire-cab-milngavie-outreach,,,FALSE,6
253,East Dunbartonshire Citizens Advice Bureau - Twechar Outreach,Twechar Healthy Living and Enterprise Centre,Twechar,,G65 9TA,55.9529,-4.08339,bureau@eastdunbartoncab.casonline.org.uk,https://www.cas.org.uk/bureaux/east-dunbartonshire-cab-twechar-outreach,,Tuesdays 12.00-14.00 (Drop In),TRUE,FALSE,FALSE,2025-01-16 12:54:07 +0000,2025-01-16 12:54:07 +0000,0141 775 3220,,FALSE,FALSE,TRUE,FALSE,www.cas.org.uk/bureaux/east-dunbartonshire-cab-twechar-outreach,,,FALSE,6
254,East Kilbride CAB - Foodbank Outreach,9 Olympia Way Town Centre,East Kilbride,,G75 8RG,55.7598,-4.22196,,,,,FALSE,FALSE,FALSE,2025-01-16 12:54:07 +0000,2025-01-16 12:54:08 +0000,,,FALSE,FALSE,FALSE,FALSE,,,,FALSE,6
255,East Kilbride Citizens Advice Bureau - Greenhills Outreach,"Greenhill Library, Greenhill Square",East Kilbride,,G75 8TT,55.745,-4.20652,bureau@ekilbridecab.cabnet.org.uk,https://www.cas.org.uk/bureaux/east-kilbride-cab-greenhills-outreach,,Mondays and Fridays 11.00-14.00,TRUE,FALSE,FALSE,2025-01-16 12:54:08 +0000,2025-01-16 12:54:08 +0000,07494 526436,,FALSE,FALSE,TRUE,FALSE,www.cas.org.uk/bureaux/east-kilbride-cab-greenhills-outreach,,,FALSE,6
256,East Kilbride Citizens Advice Bureau - Hairmyres Hospital Outreach,"Hairmyres Hospital, Eaglesham Road, Ward 19 and 20",East Kilbride,,G75 8RG,55.7598,-4.22196,bureau@ekilbridecab.cabnet.org.uk,https://www.cas.org.uk/bureaux/east-kilbride-cab-hairmyre-hospital-outreach,,"Mondays 11.00-14.00
Thursdays 13.00-14.00
Friday 10.00-12.00",TRUE,FALSE,FALSE,2025-01-16 12:54:08 +0000,2025-01-16 12:54:09 +0000,,,FALSE,FALSE,TRUE,FALSE,www.cas.org.uk/bureaux/east-kilbride-cab-hairmyre-hospital-outreach,,,FALSE,6
257,East Kilbride Citizens Advice Bureau - Strathaven Outreach,"Rankin Church Hall, 13 Letham Road",Strathaven,,ML10 6AD,55.6771,-4.06854,bureau@ekilbridecab.cabnet.org.uk,https://www.cas.org.uk/bureaux/east-kilbride-cab-strathaven-outreach,,"Mondays 10.00-14.00
Wednesdays 10.00-13.00 (Tel only)",TRUE,FALSE,FALSE,2025-01-16 12:54:09 +0000,2025-01-16 12:54:09 +0000,01355 263698 or 07903 974091,,FALSE,FALSE,TRUE,FALSE,www.cas.org.uk/bureaux/east-kilbride-cab-strathaven-outreach,,,FALSE,6
258,East Kilbride Citizens Advice Citizens Advice Bureau,9 Olympia Way Town Centre,East Kilbride,,G74 1JT,55.7605,-4.17363,bureau@ekilbridecab.cabnet.org.uk,https://www.cas.org.uk/bureaux/east-kilbride-citizens-advice-bureau,,For opening times please visit the website.,TRUE,FALSE,FALSE,2025-01-16 12:54:09 +0000,2025-01-16 12:54:10 +0000,01355 263 698,,FALSE,FALSE,TRUE,FALSE,www.cas.org.uk/bureaux/east-kilbride-citizens-advice-bureau,,,FALSE,6
259,East Renfrewshire Citizens Advice Bureau,216 Main Street,Barrhead,,G78 1SN,55.8016,-4.38724,,https://www.cas.org.uk/bureaux/east-renfrewshire-citizens-advice-bureau,,Please note that this Bureau offers advice and assistance to residents of East Renfrewshire only. For opening times please visit the website.,TRUE,FALSE,FALSE,2025-01-16 12:54:10 +0000,2025-01-16 12:54:10 +0000,0141 881 2032,,FALSE,FALSE,TRUE,FALSE,www.cas.org.uk/bureaux/east-renfrewshire-citizens-advice-bureau,,,FALSE,6
260,Falkirk Citizens Advice Citizens Advice Bureau,3 Meeks Road,Falkirk,,FK1 7EW,55.9445,-3.79187,bureau@falkirkcab.casonline.org.uk,http://www.falkirkcab.org.uk/,,"Monday, Tuesdays, Thursdays and Fridays 10.00-16.00",TRUE,FALSE,FALSE,2025-01-16 12:54:11 +0000,2025-01-16 12:54:11 +0000,01324 626 070,,FALSE,FALSE,TRUE,FALSE,www.falkirkcab.org.uk,,,FALSE,6
